[
  {
    "city": "Tokyo", 
    "lat": "35.6897", 
    "lng": "139.6922", 
    "country": "Japan", 
    "iso2": "JP", 
    "admin_name": "Tōkyō", 
    "capital": "primary", 
    "population": "37732000", 
    "population_proper": "13515271"
  }, 
  {
    "city": "Ōsaka", 
    "lat": "34.6939", 
    "lng": "135.5022", 
    "country": "Japan", 
    "iso2": "JP", 
    "admin_name": "Ōsaka", 
    "capital": "admin", 
    "population": "15126000", 
    "population_proper": "2725006"
  }, 
  {
    "city": "Nagoya", 
    "lat": "35.1833", 
    "lng": "136.9000", 
    "country": "Japan", 
    "iso2": "JP", 
    "admin_name": "Aichi", 
    "capital": "admin", 
    "population": "9197000", 
    "population_proper": "2320361"
  }, 
  {
    "city": "Yokohama", 
    "lat": "35.4442", 
    "lng": "139.6381", 
    "country": "Japan", 
    "iso2": "JP", 
    "admin_name": "Kanagawa", 
    "capital": "admin", 
    "population": "3757630", 
    "population_proper": "3757630"
  }, 
  {
    "city": "Fukuoka", 
    "lat": "33.5833", 
    "lng": "130.4000", 
    "country": "Japan", 
    "iso2": "JP", 
    "admin_name": "Fukuoka", 
    "capital": "admin", 
    "population": "2286000", 
    "population_proper": "1588924"
  }, 
  {
    "city": "Sapporo", 
    "lat": "43.0667", 
    "lng": "141.3500", 
    "country": "Japan", 
    "iso2": "JP", 
    "admin_name": "Hokkaidō", 
    "capital": "admin", 
    "population": "1961690", 
    "population_proper": "1959313"
  }, 
  {
    "city": "Kawasaki", 
    "lat": "35.5167", 
    "lng": "139.7000", 
    "country": "Japan", 
    "iso2": "JP", 
    "admin_name": "Kanagawa", 
    "capital": "", 
    "population": "1539522", 
    "population_proper": "1539522"
  }, 
  {
    "city": "Kōbe", 
    "lat": "34.6900", 
    "lng": "135.1956", 
    "country": "Japan", 
    "iso2": "JP", 
    "admin_name": "Hyōgo", 
    "capital": "admin", 
    "population": "1521707", 
    "population_proper": "1521707"
  }, 
  {
    "city": "Kyōto", 
    "lat": "35.0117", 
    "lng": "135.7683", 
    "country": "Japan", 
    "iso2": "JP", 
    "admin_name": "Kyōto", 
    "capital": "admin", 
    "population": "1464890", 
    "population_proper": "1463723"
  }, 
  {
    "city": "Saitama", 
    "lat": "35.8614", 
    "lng": "139.6456", 
    "country": "Japan", 
    "iso2": "JP", 
    "admin_name": "Saitama", 
    "capital": "admin", 
    "population": "1325843", 
    "population_proper": "1325843"
  }, 
  {
    "city": "Hiroshima", 
    "lat": "34.3914", 
    "lng": "132.4519", 
    "country": "Japan", 
    "iso2": "JP", 
    "admin_name": "Hiroshima", 
    "capital": "admin", 
    "population": "1198021", 
    "population_proper": "1198021"
  }, 
  {
    "city": "Sendai", 
    "lat": "38.2682", 
    "lng": "140.8694", 
    "country": "Japan", 
    "iso2": "JP", 
    "admin_name": "Miyagi", 
    "capital": "admin", 
    "population": "1061177", 
    "population_proper": "1061177"
  }, 
  {
    "city": "Chiba", 
    "lat": "35.6073", 
    "lng": "140.1064", 
    "country": "Japan", 
    "iso2": "JP", 
    "admin_name": "Chiba", 
    "capital": "admin", 
    "population": "981738", 
    "population_proper": "975014"
  }, 
  {
    "city": "Setagaya", 
    "lat": "35.6466", 
    "lng": "139.6532", 
    "country": "Japan", 
    "iso2": "JP", 
    "admin_name": "Tōkyō", 
    "capital": "", 
    "population": "940509", 
    "population_proper": "940509"
  }, 
  {
    "city": "Kitakyūshū", 
    "lat": "33.8833", 
    "lng": "130.8833", 
    "country": "Japan", 
    "iso2": "JP", 
    "admin_name": "Fukuoka", 
    "capital": "", 
    "population": "935084", 
    "population_proper": "935084"
  }, 
  {
    "city": "Sakai", 
    "lat": "34.5733", 
    "lng": "135.4831", 
    "country": "Japan", 
    "iso2": "JP", 
    "admin_name": "Ōsaka", 
    "capital": "", 
    "population": "824408", 
    "population_proper": "824408"
  }, 
  {
    "city": "Niigata", 
    "lat": "37.9161", 
    "lng": "139.0364", 
    "country": "Japan", 
    "iso2": "JP", 
    "admin_name": "Niigata", 
    "capital": "admin", 
    "population": "790646", 
    "population_proper": "790646"
  }, 
  {
    "city": "Hamamatsu", 
    "lat": "34.7108", 
    "lng": "137.7275", 
    "country": "Japan", 
    "iso2": "JP", 
    "admin_name": "Shizuoka", 
    "capital": "", 
    "population": "788211", 
    "population_proper": "788211"
  }, 
  {
    "city": "Nerima", 
    "lat": "35.7355", 
    "lng": "139.6517", 
    "country": "Japan", 
    "iso2": "JP", 
    "admin_name": "Tōkyō", 
    "capital": "", 
    "population": "742463", 
    "population_proper": "742463"
  }, 
  {
    "city": "Kumamoto", 
    "lat": "32.8031", 
    "lng": "130.7078", 
    "country": "Japan", 
    "iso2": "JP", 
    "admin_name": "Kumamoto", 
    "capital": "admin", 
    "population": "738385", 
    "population_proper": "738385"
  }, 
  {
    "city": "Ōta-ku", 
    "lat": "35.5613", 
    "lng": "139.7160", 
    "country": "Japan", 
    "iso2": "JP", 
    "admin_name": "Tōkyō", 
    "capital": "", 
    "population": "737187", 
    "population_proper": "737187"
  }, 
  {
    "city": "Sagamihara", 
    "lat": "35.5667", 
    "lng": "139.3667", 
    "country": "Japan", 
    "iso2": "JP", 
    "admin_name": "Kanagawa", 
    "capital": "", 
    "population": "722973", 
    "population_proper": "722973"
  }, 
  {
    "city": "Okayama", 
    "lat": "34.6500", 
    "lng": "133.9167", 
    "country": "Japan", 
    "iso2": "JP", 
    "admin_name": "Okayama", 
    "capital": "admin", 
    "population": "720043", 
    "population_proper": "720043"
  }, 
  {
    "city": "Edogawa", 
    "lat": "35.7066", 
    "lng": "139.8683", 
    "country": "Japan", 
    "iso2": "JP", 
    "admin_name": "Chiba", 
    "capital": "", 
    "population": "697932", 
    "population_proper": "697932"
  }, 
  {
    "city": "Shizuoka", 
    "lat": "34.9756", 
    "lng": "138.3828", 
    "country": "Japan", 
    "iso2": "JP", 
    "admin_name": "Shizuoka", 
    "capital": "admin", 
    "population": "685589", 
    "population_proper": "685589"
  }, 
  {
    "city": "Adachi", 
    "lat": "35.7749", 
    "lng": "139.8044", 
    "country": "Japan", 
    "iso2": "JP", 
    "admin_name": "Tōkyō", 
    "capital": "", 
    "population": "682326", 
    "population_proper": "682326"
  }, 
  {
    "city": "Honchō", 
    "lat": "35.6946", 
    "lng": "139.9826", 
    "country": "Japan", 
    "iso2": "JP", 
    "admin_name": "Chiba", 
    "capital": "", 
    "population": "641499", 
    "population_proper": "641499"
  }, 
  {
    "city": "Kagoshima", 
    "lat": "31.6000", 
    "lng": "130.5500", 
    "country": "Japan", 
    "iso2": "JP", 
    "admin_name": "Kagoshima", 
    "capital": "admin", 
    "population": "593754", 
    "population_proper": "593754"
  }, 
  {
    "city": "Kawaguchi", 
    "lat": "35.8077", 
    "lng": "139.7241", 
    "country": "Japan", 
    "iso2": "JP", 
    "admin_name": "Saitama", 
    "capital": "", 
    "population": "593353", 
    "population_proper": "593353"
  }, 
  {
    "city": "Suginami-ku", 
    "lat": "35.6995", 
    "lng": "139.6364", 
    "country": "Japan", 
    "iso2": "JP", 
    "admin_name": "Tōkyō", 
    "capital": "", 
    "population": "583609", 
    "population_proper": "583609"
  }, 
  {
    "city": "Itabashi", 
    "lat": "35.7512", 
    "lng": "139.7093", 
    "country": "Japan", 
    "iso2": "JP", 
    "admin_name": "Tōkyō", 
    "capital": "", 
    "population": "581337", 
    "population_proper": "581337"
  }, 
  {
    "city": "Hachiōji", 
    "lat": "35.6664", 
    "lng": "139.3160", 
    "country": "Japan", 
    "iso2": "JP", 
    "admin_name": "Tōkyō", 
    "capital": "", 
    "population": "575721", 
    "population_proper": "575721"
  }, 
  {
    "city": "Himeji", 
    "lat": "34.8167", 
    "lng": "134.6833", 
    "country": "Japan", 
    "iso2": "JP", 
    "admin_name": "Hyōgo", 
    "capital": "", 
    "population": "527596", 
    "population_proper": "527596"
  }, 
  {
    "city": "Kōtō-ku", 
    "lat": "35.6728", 
    "lng": "139.8173", 
    "country": "Japan", 
    "iso2": "JP", 
    "admin_name": "Tōkyō", 
    "capital": "", 
    "population": "523117", 
    "population_proper": "523117"
  }, 
  {
    "city": "Utsunomiya", 
    "lat": "36.5551", 
    "lng": "139.8826", 
    "country": "Japan", 
    "iso2": "JP", 
    "admin_name": "Tochigi", 
    "capital": "admin", 
    "population": "518197", 
    "population_proper": "518197"
  }, 
  {
    "city": "Matsuyama", 
    "lat": "33.8333", 
    "lng": "132.7667", 
    "country": "Japan", 
    "iso2": "JP", 
    "admin_name": "Ehime", 
    "capital": "admin", 
    "population": "506743", 
    "population_proper": "506743"
  }, 
  {
    "city": "Matsudo", 
    "lat": "35.7876", 
    "lng": "139.9032", 
    "country": "Japan", 
    "iso2": "JP", 
    "admin_name": "Chiba", 
    "capital": "", 
    "population": "497514", 
    "population_proper": "497514"
  }, 
  {
    "city": "Ichikawa", 
    "lat": "35.7219", 
    "lng": "139.9311", 
    "country": "Japan", 
    "iso2": "JP", 
    "admin_name": "Chiba", 
    "capital": "", 
    "population": "496657", 
    "population_proper": "495768"
  }, 
  {
    "city": "Higashi-ōsaka", 
    "lat": "34.6794", 
    "lng": "135.6008", 
    "country": "Japan", 
    "iso2": "JP", 
    "admin_name": "Ōsaka", 
    "capital": "", 
    "population": "490819", 
    "population_proper": "490819"
  }, 
  {
    "city": "Nishinomiya-hama", 
    "lat": "34.7376", 
    "lng": "135.3416", 
    "country": "Japan", 
    "iso2": "JP", 
    "admin_name": "Hyōgo", 
    "capital": "", 
    "population": "487010", 
    "population_proper": "487010"
  }, 
  {
    "city": "Ōita", 
    "lat": "33.2333", 
    "lng": "131.6067", 
    "country": "Japan", 
    "iso2": "JP", 
    "admin_name": "Ōita", 
    "capital": "admin", 
    "population": "477186", 
    "population_proper": "477186"
  }, 
  {
    "city": "Kurashiki", 
    "lat": "34.5833", 
    "lng": "133.7667", 
    "country": "Japan", 
    "iso2": "JP", 
    "admin_name": "Okayama", 
    "capital": "", 
    "population": "474862", 
    "population_proper": "474862"
  }, 
  {
    "city": "Kanazawa", 
    "lat": "36.5611", 
    "lng": "136.6564", 
    "country": "Japan", 
    "iso2": "JP", 
    "admin_name": "Ishikawa", 
    "capital": "admin", 
    "population": "462479", 
    "population_proper": "462479"
  }, 
  {
    "city": "Fukuyama", 
    "lat": "34.4833", 
    "lng": "133.3667", 
    "country": "Japan", 
    "iso2": "JP", 
    "admin_name": "Hiroshima", 
    "capital": "", 
    "population": "459576", 
    "population_proper": "459576"
  }, 
  {
    "city": "Katsushika-ku", 
    "lat": "35.7434", 
    "lng": "139.8472", 
    "country": "Japan", 
    "iso2": "JP", 
    "admin_name": "Tōkyō", 
    "capital": "", 
    "population": "453410", 
    "population_proper": "453410"
  }, 
  {
    "city": "Amagasaki", 
    "lat": "34.7333", 
    "lng": "135.4000", 
    "country": "Japan", 
    "iso2": "JP", 
    "admin_name": "Hyōgo", 
    "capital": "", 
    "population": "450506", 
    "population_proper": "450506"
  }, 
  {
    "city": "Fujisawa", 
    "lat": "35.3500", 
    "lng": "139.4667", 
    "country": "Japan", 
    "iso2": "JP", 
    "admin_name": "Kanagawa", 
    "capital": "", 
    "population": "436744", 
    "population_proper": "436744"
  }, 
  {
    "city": "Machida", 
    "lat": "35.7106", 
    "lng": "139.4386", 
    "country": "Japan", 
    "iso2": "JP", 
    "admin_name": "Tōkyō", 
    "capital": "", 
    "population": "434414", 
    "population_proper": "434414"
  }, 
  {
    "city": "Kashiwa", 
    "lat": "35.8676", 
    "lng": "139.9758", 
    "country": "Japan", 
    "iso2": "JP", 
    "admin_name": "Chiba", 
    "capital": "", 
    "population": "433941", 
    "population_proper": "427603"
  }, 
  {
    "city": "Aomori", 
    "lat": "40.8223", 
    "lng": "140.7307", 
    "country": "Japan", 
    "iso2": "JP", 
    "admin_name": "Aomori", 
    "capital": "admin", 
    "population": "425962", 
    "population_proper": "425962"
  }, 
  {
    "city": "Toyota", 
    "lat": "35.0824", 
    "lng": "137.1563", 
    "country": "Japan", 
    "iso2": "JP", 
    "admin_name": "Aichi", 
    "capital": "", 
    "population": "422106", 
    "population_proper": "422106"
  }, 
  {
    "city": "Takamatsu", 
    "lat": "34.3500", 
    "lng": "134.0500", 
    "country": "Japan", 
    "iso2": "JP", 
    "admin_name": "Kagawa", 
    "capital": "admin", 
    "population": "417814", 
    "population_proper": "417814"
  }, 
  {
    "city": "Shinagawa-ku", 
    "lat": "35.6092", 
    "lng": "139.7302", 
    "country": "Japan", 
    "iso2": "JP", 
    "admin_name": "Tōkyō", 
    "capital": "", 
    "population": "415729", 
    "population_proper": "415729"
  }, 
  {
    "city": "Toyama", 
    "lat": "36.6959", 
    "lng": "137.2137", 
    "country": "Japan", 
    "iso2": "JP", 
    "admin_name": "Toyama", 
    "capital": "admin", 
    "population": "413028", 
    "population_proper": "413028"
  }, 
  {
    "city": "Nagasaki", 
    "lat": "32.7447", 
    "lng": "129.8736", 
    "country": "Japan", 
    "iso2": "JP", 
    "admin_name": "Nagasaki", 
    "capital": "admin", 
    "population": "404656", 
    "population_proper": "404656"
  }, 
  {
    "city": "Toyonaka", 
    "lat": "34.7833", 
    "lng": "135.4667", 
    "country": "Japan", 
    "iso2": "JP", 
    "admin_name": "Ōsaka", 
    "capital": "", 
    "population": "401233", 
    "population_proper": "401233"
  }, 
  {
    "city": "Gifu", 
    "lat": "35.4232", 
    "lng": "136.7608", 
    "country": "Japan", 
    "iso2": "JP", 
    "admin_name": "Gifu", 
    "capital": "admin", 
    "population": "400118", 
    "population_proper": "400118"
  }, 
  {
    "city": "Miyazaki", 
    "lat": "31.9167", 
    "lng": "131.4167", 
    "country": "Japan", 
    "iso2": "JP", 
    "admin_name": "Miyazaki", 
    "capital": "admin", 
    "population": "397476", 
    "population_proper": "397476"
  }, 
  {
    "city": "Hirakata", 
    "lat": "34.8167", 
    "lng": "135.6500", 
    "country": "Japan", 
    "iso2": "JP", 
    "admin_name": "Ōsaka", 
    "capital": "", 
    "population": "396694", 
    "population_proper": "396694"
  }, 
  {
    "city": "Yokosuka", 
    "lat": "35.2500", 
    "lng": "139.6667", 
    "country": "Japan", 
    "iso2": "JP", 
    "admin_name": "Kanagawa", 
    "capital": "", 
    "population": "390275", 
    "population_proper": "390275"
  }, 
  {
    "city": "Okazaki", 
    "lat": "34.9543", 
    "lng": "137.1744", 
    "country": "Japan", 
    "iso2": "JP", 
    "admin_name": "Aichi", 
    "capital": "", 
    "population": "385376", 
    "population_proper": "385376"
  }, 
  {
    "city": "Minamisuita", 
    "lat": "34.7594", 
    "lng": "135.5169", 
    "country": "Japan", 
    "iso2": "JP", 
    "admin_name": "Ōsaka", 
    "capital": "", 
    "population": "384953", 
    "population_proper": "384953"
  }, 
  {
    "city": "Ichinomiya", 
    "lat": "35.3039", 
    "lng": "136.8031", 
    "country": "Japan", 
    "iso2": "JP", 
    "admin_name": "Aichi", 
    "capital": "", 
    "population": "378681", 
    "population_proper": "378108"
  }, 
  {
    "city": "Takasaki", 
    "lat": "36.3219", 
    "lng": "139.0033", 
    "country": "Japan", 
    "iso2": "JP", 
    "admin_name": "Gunma", 
    "capital": "", 
    "population": "372639", 
    "population_proper": "372639"
  }, 
  {
    "city": "Toyohashi", 
    "lat": "34.7692", 
    "lng": "137.3915", 
    "country": "Japan", 
    "iso2": "JP", 
    "admin_name": "Aichi", 
    "capital": "", 
    "population": "371507", 
    "population_proper": "371507"
  }, 
  {
    "city": "Nagano", 
    "lat": "36.6486", 
    "lng": "138.1947", 
    "country": "Japan", 
    "iso2": "JP", 
    "admin_name": "Nagano", 
    "capital": "admin", 
    "population": "367184", 
    "population_proper": "367184"
  }, 
  {
    "city": "Kawagoe", 
    "lat": "35.9251", 
    "lng": "139.4858", 
    "country": "Japan", 
    "iso2": "JP", 
    "admin_name": "Saitama", 
    "capital": "", 
    "population": "354598", 
    "population_proper": "354598"
  }, 
  {
    "city": "Wakayama", 
    "lat": "34.2333", 
    "lng": "135.1667", 
    "country": "Japan", 
    "iso2": "JP", 
    "admin_name": "Wakayama", 
    "capital": "admin", 
    "population": "353299", 
    "population_proper": "353299"
  }, 
  {
    "city": "Kita-ku", 
    "lat": "35.7528", 
    "lng": "139.7336", 
    "country": "Japan", 
    "iso2": "JP", 
    "admin_name": "Tōkyō", 
    "capital": "", 
    "population": "353058", 
    "population_proper": "353058"
  }, 
  {
    "city": "Nara", 
    "lat": "34.6844", 
    "lng": "135.8050", 
    "country": "Japan", 
    "iso2": "JP", 
    "admin_name": "Nara", 
    "capital": "admin", 
    "population": "352377", 
    "population_proper": "352377"
  }, 
  {
    "city": "Shinjuku", 
    "lat": "35.6939", 
    "lng": "139.7034", 
    "country": "Japan", 
    "iso2": "JP", 
    "admin_name": "Tōkyō", 
    "capital": "", 
    "population": "349385", 
    "population_proper": "349385"
  }, 
  {
    "city": "Takatsuki", 
    "lat": "34.8500", 
    "lng": "135.6167", 
    "country": "Japan", 
    "iso2": "JP", 
    "admin_name": "Ōsaka", 
    "capital": "", 
    "population": "347496", 
    "population_proper": "347496"
  }, 
  {
    "city": "Koshigaya", 
    "lat": "35.8911", 
    "lng": "139.7909", 
    "country": "Japan", 
    "iso2": "JP", 
    "admin_name": "Saitama", 
    "capital": "", 
    "population": "346768", 
    "population_proper": "341784"
  }, 
  {
    "city": "Ōtsu", 
    "lat": "35.0167", 
    "lng": "135.8500", 
    "country": "Japan", 
    "iso2": "JP", 
    "admin_name": "Shiga", 
    "capital": "admin", 
    "population": "342607", 
    "population_proper": "342607"
  }, 
  {
    "city": "Tokorozawa", 
    "lat": "35.7996", 
    "lng": "139.4686", 
    "country": "Japan", 
    "iso2": "JP", 
    "admin_name": "Saitama", 
    "capital": "", 
    "population": "341289", 
    "population_proper": "341289"
  }, 
  {
    "city": "Nakano", 
    "lat": "35.7073", 
    "lng": "139.6637", 
    "country": "Japan", 
    "iso2": "JP", 
    "admin_name": "Tōkyō", 
    "capital": "", 
    "population": "341014", 
    "population_proper": "341014"
  }, 
  {
    "city": "Iwaki", 
    "lat": "37.0505", 
    "lng": "140.8877", 
    "country": "Japan", 
    "iso2": "JP", 
    "admin_name": "Fukushima", 
    "capital": "", 
    "population": "336111", 
    "population_proper": "336111"
  }, 
  {
    "city": "Hirosaki", 
    "lat": "40.6031", 
    "lng": "140.4638", 
    "country": "Japan", 
    "iso2": "JP", 
    "admin_name": "Aomori", 
    "capital": "", 
    "population": "335203", 
    "population_proper": "167803"
  }, 
  {
    "city": "Maebashi", 
    "lat": "36.3895", 
    "lng": "139.0634", 
    "country": "Japan", 
    "iso2": "JP", 
    "admin_name": "Gunma", 
    "capital": "admin", 
    "population": "331849", 
    "population_proper": "331849"
  }, 
  {
    "city": "Asahikawa", 
    "lat": "43.7706", 
    "lng": "142.3650", 
    "country": "Japan", 
    "iso2": "JP", 
    "admin_name": "Hokkaidō", 
    "capital": "", 
    "population": "331392", 
    "population_proper": "331392"
  }, 
  {
    "city": "Koriyama", 
    "lat": "37.4004", 
    "lng": "140.3597", 
    "country": "Japan", 
    "iso2": "JP", 
    "admin_name": "Fukushima", 
    "capital": "", 
    "population": "329706", 
    "population_proper": "327040"
  }, 
  {
    "city": "Kōchi", 
    "lat": "33.5589", 
    "lng": "133.5314", 
    "country": "Japan", 
    "iso2": "JP", 
    "admin_name": "Kōchi", 
    "capital": "admin", 
    "population": "325560", 
    "population_proper": "325535"
  }, 
  {
    "city": "Naha", 
    "lat": "26.2122", 
    "lng": "127.6792", 
    "country": "Japan", 
    "iso2": "JP", 
    "admin_name": "Okinawa", 
    "capital": "admin", 
    "population": "316048", 
    "population_proper": "316048"
  }, 
  {
    "city": "Yokkaichi", 
    "lat": "34.9650", 
    "lng": "136.6244", 
    "country": "Japan", 
    "iso2": "JP", 
    "admin_name": "Mie", 
    "capital": "", 
    "population": "310263", 
    "population_proper": "310263"
  }, 
  {
    "city": "Kasugai", 
    "lat": "35.2475", 
    "lng": "136.9722", 
    "country": "Japan", 
    "iso2": "JP", 
    "admin_name": "Aichi", 
    "capital": "", 
    "population": "306449", 
    "population_proper": "306449"
  }, 
  {
    "city": "Akita", 
    "lat": "39.7200", 
    "lng": "140.1026", 
    "country": "Japan", 
    "iso2": "JP", 
    "admin_name": "Akita", 
    "capital": "admin", 
    "population": "302984", 
    "population_proper": "302984"
  }, 
  {
    "city": "Kurume", 
    "lat": "33.3167", 
    "lng": "130.5167", 
    "country": "Japan", 
    "iso2": "JP", 
    "admin_name": "Fukuoka", 
    "capital": "", 
    "population": "302858", 
    "population_proper": "302858"
  }, 
  {
    "city": "Ōakashichō", 
    "lat": "34.6500", 
    "lng": "135.0000", 
    "country": "Japan", 
    "iso2": "JP", 
    "admin_name": "Hyōgo", 
    "capital": "", 
    "population": "299699", 
    "population_proper": "299699"
  }, 
  {
    "city": "Toshima", 
    "lat": "35.7261", 
    "lng": "139.7167", 
    "country": "Japan", 
    "iso2": "JP", 
    "admin_name": "Tōkyō", 
    "capital": "", 
    "population": "297954", 
    "population_proper": "297954"
  }, 
  {
    "city": "Morioka", 
    "lat": "39.7021", 
    "lng": "141.1545", 
    "country": "Japan", 
    "iso2": "JP", 
    "admin_name": "Iwate", 
    "capital": "admin", 
    "population": "290553", 
    "population_proper": "290553"
  }, 
  {
    "city": "Meguro", 
    "lat": "35.6415", 
    "lng": "139.6983", 
    "country": "Japan", 
    "iso2": "JP", 
    "admin_name": "Tōkyō", 
    "capital": "", 
    "population": "286905", 
    "population_proper": "286905"
  }, 
  {
    "city": "Fukushima", 
    "lat": "37.7608", 
    "lng": "140.4747", 
    "country": "Japan", 
    "iso2": "JP", 
    "admin_name": "Fukushima", 
    "capital": "admin", 
    "population": "284282", 
    "population_proper": "284282"
  }, 
  {
    "city": "Ibaraki", 
    "lat": "34.8164", 
    "lng": "135.5686", 
    "country": "Japan", 
    "iso2": "JP", 
    "admin_name": "Ōsaka", 
    "capital": "", 
    "population": "283835", 
    "population_proper": "283835"
  }, 
  {
    "city": "Tsu", 
    "lat": "34.7184", 
    "lng": "136.5057", 
    "country": "Japan", 
    "iso2": "JP", 
    "admin_name": "Mie", 
    "capital": "admin", 
    "population": "273267", 
    "population_proper": "273267"
  }, 
  {
    "city": "Sumida", 
    "lat": "35.7107", 
    "lng": "139.8015", 
    "country": "Japan", 
    "iso2": "JP", 
    "admin_name": "Tōkyō", 
    "capital": "", 
    "population": "270823", 
    "population_proper": "270823"
  }, 
  {
    "city": "Mito", 
    "lat": "36.3658", 
    "lng": "140.4712", 
    "country": "Japan", 
    "iso2": "JP", 
    "admin_name": "Ibaraki", 
    "capital": "admin", 
    "population": "270445", 
    "population_proper": "270445"
  }, 
  {
    "city": "Ichihara", 
    "lat": "35.4981", 
    "lng": "140.1154", 
    "country": "Japan", 
    "iso2": "JP", 
    "admin_name": "Chiba", 
    "capital": "", 
    "population": "268038", 
    "population_proper": "268038"
  }, 
  {
    "city": "Nagaoka", 
    "lat": "37.4462", 
    "lng": "138.8512", 
    "country": "Japan", 
    "iso2": "JP", 
    "admin_name": "Niigata", 
    "capital": "", 
    "population": "265868", 
    "population_proper": "265868"
  }, 
  {
    "city": "Yao", 
    "lat": "34.6269", 
    "lng": "135.6010", 
    "country": "Japan", 
    "iso2": "JP", 
    "admin_name": "Nara", 
    "capital": "", 
    "population": "264913", 
    "population_proper": "264913"
  }, 
  {
    "city": "Fuchū", 
    "lat": "35.6689", 
    "lng": "139.4776", 
    "country": "Japan", 
    "iso2": "JP", 
    "admin_name": "Tōkyō", 
    "capital": "", 
    "population": "263093", 
    "population_proper": "263093"
  }, 
  {
    "city": "Fukui", 
    "lat": "36.0641", 
    "lng": "136.2196", 
    "country": "Japan", 
    "iso2": "JP", 
    "admin_name": "Fukui", 
    "capital": "admin", 
    "population": "261474", 
    "population_proper": "261474"
  }, 
  {
    "city": "Kakogawachō-honmachi", 
    "lat": "34.7500", 
    "lng": "134.8333", 
    "country": "Japan", 
    "iso2": "JP", 
    "admin_name": "Hyōgo", 
    "capital": "", 
    "population": "260595", 
    "population_proper": "260595"
  }, 
  {
    "city": "Minato", 
    "lat": "35.6580", 
    "lng": "139.7515", 
    "country": "Japan", 
    "iso2": "JP", 
    "admin_name": "Tōkyō", 
    "capital": "", 
    "population": "260486", 
    "population_proper": "260486"
  }, 
  {
    "city": "Hiratsuka", 
    "lat": "35.3167", 
    "lng": "139.3500", 
    "country": "Japan", 
    "iso2": "JP", 
    "admin_name": "Kanagawa", 
    "capital": "", 
    "population": "257662", 
    "population_proper": "257662"
  }, 
  {
    "city": "Tokushima", 
    "lat": "34.0703", 
    "lng": "134.5549", 
    "country": "Japan", 
    "iso2": "JP", 
    "admin_name": "Tokushima", 
    "capital": "admin", 
    "population": "254510", 
    "population_proper": "254510"
  }, 
  {
    "city": "Shinozaki", 
    "lat": "33.9500", 
    "lng": "130.9333", 
    "country": "Japan", 
    "iso2": "JP", 
    "admin_name": "Fukuoka", 
    "capital": "", 
    "population": "252844", 
    "population_proper": "252844"
  }, 
  {
    "city": "Hakodate", 
    "lat": "41.7686", 
    "lng": "140.7289", 
    "country": "Japan", 
    "iso2": "JP", 
    "admin_name": "Hokkaidō", 
    "capital": "", 
    "population": "251942", 
    "population_proper": "251891"
  }, 
  {
    "city": "Sōka", 
    "lat": "35.8254", 
    "lng": "139.8053", 
    "country": "Japan", 
    "iso2": "JP", 
    "admin_name": "Saitama", 
    "capital": "", 
    "population": "251390", 
    "population_proper": "251390"
  }, 
  {
    "city": "Yamagata", 
    "lat": "38.2554", 
    "lng": "140.3396", 
    "country": "Japan", 
    "iso2": "JP", 
    "admin_name": "Yamagata", 
    "capital": "admin", 
    "population": "247234", 
    "population_proper": "247234"
  }, 
  {
    "city": "Tsukuba-kenkyūgakuen-toshi", 
    "lat": "36.0835", 
    "lng": "140.0764", 
    "country": "Japan", 
    "iso2": "JP", 
    "admin_name": "Ibaraki", 
    "capital": "", 
    "population": "246647", 
    "population_proper": "246647"
  }, 
  {
    "city": "Fuji", 
    "lat": "35.1613", 
    "lng": "138.6763", 
    "country": "Japan", 
    "iso2": "JP", 
    "admin_name": "Shizuoka", 
    "capital": "", 
    "population": "243739", 
    "population_proper": "243739"
  }, 
  {
    "city": "Sasebo", 
    "lat": "33.1800", 
    "lng": "129.7150", 
    "country": "Japan", 
    "iso2": "JP", 
    "admin_name": "Nagasaki", 
    "capital": "", 
    "population": "242664", 
    "population_proper": "242664"
  }, 
  {
    "city": "Chigasaki", 
    "lat": "35.3333", 
    "lng": "139.4000", 
    "country": "Japan", 
    "iso2": "JP", 
    "admin_name": "Kanagawa", 
    "capital": "", 
    "population": "242347", 
    "population_proper": "242347"
  }, 
  {
    "city": "Chōfugaoka", 
    "lat": "35.6506", 
    "lng": "139.5407", 
    "country": "Japan", 
    "iso2": "JP", 
    "admin_name": "Tōkyō", 
    "capital": "", 
    "population": "240359", 
    "population_proper": "240359"
  }, 
  {
    "city": "Bunkyō-ku", 
    "lat": "35.7080", 
    "lng": "139.7523", 
    "country": "Japan", 
    "iso2": "JP", 
    "admin_name": "Tōkyō", 
    "capital": "", 
    "population": "240069", 
    "population_proper": "240069"
  }, 
  {
    "city": "Yato", 
    "lat": "35.4833", 
    "lng": "139.4500", 
    "country": "Japan", 
    "iso2": "JP", 
    "admin_name": "Kanagawa", 
    "capital": "", 
    "population": "239146", 
    "population_proper": "239146"
  }, 
  {
    "city": "Matsumoto", 
    "lat": "36.2380", 
    "lng": "137.9720", 
    "country": "Japan", 
    "iso2": "JP", 
    "admin_name": "Nagano", 
    "capital": "", 
    "population": "239115", 
    "population_proper": "239115"
  }, 
  {
    "city": "Shibuya-ku", 
    "lat": "35.6637", 
    "lng": "139.6977", 
    "country": "Japan", 
    "iso2": "JP", 
    "admin_name": "Tōkyō", 
    "capital": "", 
    "population": "235193", 
    "population_proper": "235193"
  }, 
  {
    "city": "Saga", 
    "lat": "33.2667", 
    "lng": "130.3000", 
    "country": "Japan", 
    "iso2": "JP", 
    "admin_name": "Saga", 
    "capital": "admin", 
    "population": "232359", 
    "population_proper": "232359"
  }, 
  {
    "city": "Kasukabe", 
    "lat": "35.9753", 
    "lng": "139.7523", 
    "country": "Japan", 
    "iso2": "JP", 
    "admin_name": "Saitama", 
    "capital": "", 
    "population": "228975", 
    "population_proper": "228975"
  }, 
  {
    "city": "Neya", 
    "lat": "34.7667", 
    "lng": "135.6333", 
    "country": "Japan", 
    "iso2": "JP", 
    "admin_name": "Ōsaka", 
    "capital": "", 
    "population": "227997", 
    "population_proper": "227997"
  }, 
  {
    "city": "Ageoshimo", 
    "lat": "35.9774", 
    "lng": "139.5932", 
    "country": "Japan", 
    "iso2": "JP", 
    "admin_name": "Saitama", 
    "capital": "", 
    "population": "226616", 
    "population_proper": "226616"
  }, 
  {
    "city": "Takarazuka", 
    "lat": "34.8114", 
    "lng": "135.3406", 
    "country": "Japan", 
    "iso2": "JP", 
    "admin_name": "Hyōgo", 
    "capital": "", 
    "population": "224055", 
    "population_proper": "224055"
  }, 
  {
    "city": "Atsugichō", 
    "lat": "35.4333", 
    "lng": "139.3667", 
    "country": "Japan", 
    "iso2": "JP", 
    "admin_name": "Kanagawa", 
    "capital": "", 
    "population": "223815", 
    "population_proper": "223815"
  }, 
  {
    "city": "Ōta", 
    "lat": "36.2911", 
    "lng": "139.3754", 
    "country": "Japan", 
    "iso2": "JP", 
    "admin_name": "Gunma", 
    "capital": "", 
    "population": "222806", 
    "population_proper": "222806"
  }, 
  {
    "city": "Hachinohe", 
    "lat": "40.5123", 
    "lng": "141.4884", 
    "country": "Japan", 
    "iso2": "JP", 
    "admin_name": "Aomori", 
    "capital": "", 
    "population": "222799", 
    "population_proper": "222799"
  }, 
  {
    "city": "Arakawa", 
    "lat": "35.7361", 
    "lng": "139.7834", 
    "country": "Japan", 
    "iso2": "JP", 
    "admin_name": "Tōkyō", 
    "capital": "", 
    "population": "217891", 
    "population_proper": "217891"
  }, 
  {
    "city": "Kure", 
    "lat": "34.2500", 
    "lng": "132.5667", 
    "country": "Japan", 
    "iso2": "JP", 
    "admin_name": "Hiroshima", 
    "capital": "", 
    "population": "212159", 
    "population_proper": "212159"
  }, 
  {
    "city": "Taitō", 
    "lat": "35.7126", 
    "lng": "139.7800", 
    "country": "Japan", 
    "iso2": "JP", 
    "admin_name": "Tōkyō", 
    "capital": "", 
    "population": "210528", 
    "population_proper": "210528"
  }, 
  {
    "city": "Isesaki", 
    "lat": "36.3114", 
    "lng": "139.1968", 
    "country": "Japan", 
    "iso2": "JP", 
    "admin_name": "Gunma", 
    "capital": "", 
    "population": "210332", 
    "population_proper": "210332"
  }, 
  {
    "city": "Nishitōkyō", 
    "lat": "35.7256", 
    "lng": "139.5383", 
    "country": "Japan", 
    "iso2": "JP", 
    "admin_name": "Tōkyō", 
    "capital": "", 
    "population": "207436", 
    "population_proper": "207436"
  }, 
  {
    "city": "Matsue", 
    "lat": "35.4708", 
    "lng": "133.0519", 
    "country": "Japan", 
    "iso2": "JP", 
    "admin_name": "Shimane", 
    "capital": "admin", 
    "population": "201802", 
    "population_proper": "201802"
  }, 
  {
    "city": "Yachiyo", 
    "lat": "35.7224", 
    "lng": "140.0999", 
    "country": "Japan", 
    "iso2": "JP", 
    "admin_name": "Chiba", 
    "capital": "", 
    "population": "200538", 
    "population_proper": "200538"
  }, 
  {
    "city": "Nagareyama", 
    "lat": "35.8563", 
    "lng": "139.9029", 
    "country": "Japan", 
    "iso2": "JP", 
    "admin_name": "Chiba", 
    "capital": "", 
    "population": "200298", 
    "population_proper": "200298"
  }, 
  {
    "city": "Itami", 
    "lat": "34.7833", 
    "lng": "135.4000", 
    "country": "Japan", 
    "iso2": "JP", 
    "admin_name": "Hyōgo", 
    "capital": "", 
    "population": "198522", 
    "population_proper": "198522"
  }, 
  {
    "city": "Higashi-Hiroshima", 
    "lat": "34.4167", 
    "lng": "132.7333", 
    "country": "Japan", 
    "iso2": "JP", 
    "admin_name": "Hiroshima", 
    "capital": "", 
    "population": "197347", 
    "population_proper": "197347"
  }, 
  {
    "city": "Kodaira", 
    "lat": "35.7285", 
    "lng": "139.4774", 
    "country": "Japan", 
    "iso2": "JP", 
    "admin_name": "Tōkyō", 
    "capital": "", 
    "population": "196959", 
    "population_proper": "196959"
  }, 
  {
    "city": "Suzuka", 
    "lat": "34.8820", 
    "lng": "136.5842", 
    "country": "Japan", 
    "iso2": "JP", 
    "admin_name": "Mie", 
    "capital": "", 
    "population": "195250", 
    "population_proper": "195250"
  }, 
  {
    "city": "Kamirenjaku", 
    "lat": "35.6836", 
    "lng": "139.5595", 
    "country": "Japan", 
    "iso2": "JP", 
    "admin_name": "Tōkyō", 
    "capital": "", 
    "population": "194460", 
    "population_proper": "194460"
  }, 
  {
    "city": "Yamaguchi", 
    "lat": "34.1833", 
    "lng": "131.4667", 
    "country": "Japan", 
    "iso2": "JP", 
    "admin_name": "Yamaguchi", 
    "capital": "admin", 
    "population": "193761", 
    "population_proper": "193761"
  }, 
  {
    "city": "Kumagaya", 
    "lat": "36.1474", 
    "lng": "139.3886", 
    "country": "Japan", 
    "iso2": "JP", 
    "admin_name": "Saitama", 
    "capital": "", 
    "population": "193190", 
    "population_proper": "193190"
  }, 
  {
    "city": "Hino", 
    "lat": "35.6713", 
    "lng": "139.3951", 
    "country": "Japan", 
    "iso2": "JP", 
    "admin_name": "Tōkyō", 
    "capital": "", 
    "population": "190598", 
    "population_proper": "190598"
  }, 
  {
    "city": "Odawara", 
    "lat": "35.2500", 
    "lng": "139.1500", 
    "country": "Japan", 
    "iso2": "JP", 
    "admin_name": "Kanagawa", 
    "capital": "", 
    "population": "189038", 
    "population_proper": "189038"
  }, 
  {
    "city": "Anjōmachi", 
    "lat": "34.9587", 
    "lng": "137.0803", 
    "country": "Japan", 
    "iso2": "JP", 
    "admin_name": "Aichi", 
    "capital": "", 
    "population": "188801", 
    "population_proper": "188801"
  }, 
  {
    "city": "Kishiwada", 
    "lat": "34.4667", 
    "lng": "135.3667", 
    "country": "Japan", 
    "iso2": "JP", 
    "admin_name": "Ōsaka", 
    "capital": "", 
    "population": "188015", 
    "population_proper": "188015"
  }, 
  {
    "city": "Numazu", 
    "lat": "35.0956", 
    "lng": "138.8634", 
    "country": "Japan", 
    "iso2": "JP", 
    "admin_name": "Shizuoka", 
    "capital": "", 
    "population": "187653", 
    "population_proper": "187653"
  }, 
  {
    "city": "Tottori", 
    "lat": "35.5000", 
    "lng": "134.2333", 
    "country": "Japan", 
    "iso2": "JP", 
    "admin_name": "Tottori", 
    "capital": "", 
    "population": "187323", 
    "population_proper": "187323"
  }, 
  {
    "city": "Jōetsu", 
    "lat": "37.1479", 
    "lng": "138.2361", 
    "country": "Japan", 
    "iso2": "JP", 
    "admin_name": "Niigata", 
    "capital": "", 
    "population": "187291", 
    "population_proper": "187291"
  }, 
  {
    "city": "Kōfu", 
    "lat": "35.6621", 
    "lng": "138.5682", 
    "country": "Japan", 
    "iso2": "JP", 
    "admin_name": "Yamanashi", 
    "capital": "admin", 
    "population": "187144", 
    "population_proper": "187144"
  }, 
  {
    "city": "Toyokawa", 
    "lat": "34.8268", 
    "lng": "137.3759", 
    "country": "Japan", 
    "iso2": "JP", 
    "admin_name": "Aichi", 
    "capital": "", 
    "population": "183965", 
    "population_proper": "183965"
  }, 
  {
    "city": "Tachikawa", 
    "lat": "35.6942", 
    "lng": "139.4197", 
    "country": "Japan", 
    "iso2": "JP", 
    "admin_name": "Tōkyō", 
    "capital": "", 
    "population": "181115", 
    "population_proper": "181115"
  }, 
  {
    "city": "Uji", 
    "lat": "34.8844", 
    "lng": "135.7997", 
    "country": "Japan", 
    "iso2": "JP", 
    "admin_name": "Kyōto", 
    "capital": "", 
    "population": "179626", 
    "population_proper": "179626"
  }, 
  {
    "city": "Narashino", 
    "lat": "35.6804", 
    "lng": "140.0265", 
    "country": "Japan", 
    "iso2": "JP", 
    "admin_name": "Chiba", 
    "capital": "", 
    "population": "174990", 
    "population_proper": "174990"
  }, 
  {
    "city": "Kamakurayama", 
    "lat": "35.3197", 
    "lng": "139.5525", 
    "country": "Japan", 
    "iso2": "JP", 
    "admin_name": "Kanagawa", 
    "capital": "", 
    "population": "172929", 
    "population_proper": "172929"
  }, 
  {
    "city": "Hitachi", 
    "lat": "36.5991", 
    "lng": "140.6515", 
    "country": "Japan", 
    "iso2": "JP", 
    "admin_name": "Ibaraki", 
    "capital": "", 
    "population": "172709", 
    "population_proper": "172709"
  }, 
  {
    "city": "Izumo", 
    "lat": "35.3667", 
    "lng": "132.7667", 
    "country": "Japan", 
    "iso2": "JP", 
    "admin_name": "Shimane", 
    "capital": "", 
    "population": "171995", 
    "population_proper": "171995"
  }, 
  {
    "city": "Tomakomai", 
    "lat": "42.6341", 
    "lng": "141.6055", 
    "country": "Japan", 
    "iso2": "JP", 
    "admin_name": "Hokkaidō", 
    "capital": "", 
    "population": "170223", 
    "population_proper": "170223"
  }, 
  {
    "city": "Chūō-ku", 
    "lat": "35.6706", 
    "lng": "139.7720", 
    "country": "Japan", 
    "iso2": "JP", 
    "admin_name": "Tōkyō", 
    "capital": "", 
    "population": "169995", 
    "population_proper": "169179"
  }, 
  {
    "city": "Urayasu", 
    "lat": "35.6539", 
    "lng": "139.9022", 
    "country": "Japan", 
    "iso2": "JP", 
    "admin_name": "Chiba", 
    "capital": "", 
    "population": "169749", 
    "population_proper": "169749"
  }, 
  {
    "city": "Sakura", 
    "lat": "35.7167", 
    "lng": "140.2167", 
    "country": "Japan", 
    "iso2": "JP", 
    "admin_name": "Chiba", 
    "capital": "", 
    "population": "169059", 
    "population_proper": "169059"
  }, 
  {
    "city": "Nishio", 
    "lat": "34.8333", 
    "lng": "137.0667", 
    "country": "Japan", 
    "iso2": "JP", 
    "admin_name": "Aichi", 
    "capital": "", 
    "population": "168992", 
    "population_proper": "168992"
  }, 
  {
    "city": "Oyama", 
    "lat": "36.3146", 
    "lng": "139.8002", 
    "country": "Japan", 
    "iso2": "JP", 
    "admin_name": "Tochigi", 
    "capital": "", 
    "population": "167874", 
    "population_proper": "167874"
  }, 
  {
    "city": "Takaoka", 
    "lat": "36.7541", 
    "lng": "137.0257", 
    "country": "Japan", 
    "iso2": "JP", 
    "admin_name": "Toyama", 
    "capital": "", 
    "population": "165880", 
    "population_proper": "165880"
  }, 
  {
    "city": "Kushiro", 
    "lat": "42.9833", 
    "lng": "144.3833", 
    "country": "Japan", 
    "iso2": "JP", 
    "admin_name": "Hokkaidō", 
    "capital": "", 
    "population": "165699", 
    "population_proper": "165699"
  }, 
  {
    "city": "Iwata", 
    "lat": "34.7179", 
    "lng": "137.8515", 
    "country": "Japan", 
    "iso2": "JP", 
    "admin_name": "Shizuoka", 
    "capital": "", 
    "population": "165688", 
    "population_proper": "165688"
  }, 
  {
    "city": "Obihiro", 
    "lat": "42.9167", 
    "lng": "143.2000", 
    "country": "Japan", 
    "iso2": "JP", 
    "admin_name": "Hokkaidō", 
    "capital": "", 
    "population": "165684", 
    "population_proper": "165684"
  }, 
  {
    "city": "Niiza", 
    "lat": "35.7935", 
    "lng": "139.5653", 
    "country": "Japan", 
    "iso2": "JP", 
    "admin_name": "Saitama", 
    "capital": "", 
    "population": "164653", 
    "population_proper": "164653"
  }, 
  {
    "city": "Hadano", 
    "lat": "35.3667", 
    "lng": "139.2167", 
    "country": "Japan", 
    "iso2": "JP", 
    "admin_name": "Kanagawa", 
    "capital": "", 
    "population": "164292", 
    "population_proper": "164292"
  }, 
  {
    "city": "Ube", 
    "lat": "33.9500", 
    "lng": "131.2500", 
    "country": "Japan", 
    "iso2": "JP", 
    "admin_name": "Yamaguchi", 
    "capital": "", 
    "population": "162873", 
    "population_proper": "162873"
  }, 
  {
    "city": "Miyakonojō", 
    "lat": "31.7167", 
    "lng": "131.0667", 
    "country": "Japan", 
    "iso2": "JP", 
    "admin_name": "Miyazaki", 
    "capital": "", 
    "population": "159878", 
    "population_proper": "159878"
  }, 
  {
    "city": "Matsuzaka", 
    "lat": "34.5779", 
    "lng": "136.5276", 
    "country": "Japan", 
    "iso2": "JP", 
    "admin_name": "Mie", 
    "capital": "", 
    "population": "158472", 
    "population_proper": "158472"
  }, 
  {
    "city": "Ōgaki", 
    "lat": "35.3594", 
    "lng": "136.6129", 
    "country": "Japan", 
    "iso2": "JP", 
    "admin_name": "Gifu", 
    "capital": "", 
    "population": "158386", 
    "population_proper": "158386"
  }, 
  {
    "city": "Daiwanishi", 
    "lat": "34.8333", 
    "lng": "135.4167", 
    "country": "Japan", 
    "iso2": "JP", 
    "admin_name": "Hyōgo", 
    "capital": "", 
    "population": "155165", 
    "population_proper": "155165"
  }, 
  {
    "city": "Hitachi-Naka", 
    "lat": "36.3967", 
    "lng": "140.5347", 
    "country": "Japan", 
    "iso2": "JP", 
    "admin_name": "Ibaraki", 
    "capital": "", 
    "population": "154311", 
    "population_proper": "154311"
  }, 
  {
    "city": "Tochigi", 
    "lat": "36.3813", 
    "lng": "139.7303", 
    "country": "Japan", 
    "iso2": "JP", 
    "admin_name": "Tochigi", 
    "capital": "", 
    "population": "153508", 
    "population_proper": "153508"
  }, 
  {
    "city": "Kariya", 
    "lat": "34.9893", 
    "lng": "137.0021", 
    "country": "Japan", 
    "iso2": "JP", 
    "admin_name": "Aichi", 
    "capital": "", 
    "population": "153178", 
    "population_proper": "153178"
  }, 
  {
    "city": "Ueda", 
    "lat": "36.4019", 
    "lng": "138.2491", 
    "country": "Japan", 
    "iso2": "JP", 
    "admin_name": "Nagano", 
    "capital": "", 
    "population": "152948", 
    "population_proper": "152948"
  }, 
  {
    "city": "Noda", 
    "lat": "35.9500", 
    "lng": "139.8667", 
    "country": "Japan", 
    "iso2": "JP", 
    "admin_name": "Chiba", 
    "capital": "", 
    "population": "152227", 
    "population_proper": "152227"
  }, 
  {
    "city": "Kawashiri", 
    "lat": "34.8301", 
    "lng": "135.4173", 
    "country": "Japan", 
    "iso2": "JP", 
    "admin_name": "Ōsaka", 
    "capital": "", 
    "population": "152076", 
    "population_proper": "152076"
  }, 
  {
    "city": "Higashimurayama", 
    "lat": "35.7546", 
    "lng": "139.4685", 
    "country": "Japan", 
    "iso2": "JP", 
    "admin_name": "Tōkyō", 
    "capital": "", 
    "population": "150458", 
    "population_proper": "150458"
  }, 
  {
    "city": "Kukichūō", 
    "lat": "36.0621", 
    "lng": "139.6668", 
    "country": "Japan", 
    "iso2": "JP", 
    "admin_name": "Saitama", 
    "capital": "", 
    "population": "150197", 
    "population_proper": "150197"
  }, 
  {
    "city": "Imabari", 
    "lat": "34.0667", 
    "lng": "133.0000", 
    "country": "Japan", 
    "iso2": "JP", 
    "admin_name": "Ehime", 
    "capital": "", 
    "population": "149209", 
    "population_proper": "149209"
  }, 
  {
    "city": "Musashino", 
    "lat": "35.7177", 
    "lng": "139.5661", 
    "country": "Japan", 
    "iso2": "JP", 
    "admin_name": "Tōkyō", 
    "capital": "", 
    "population": "148971", 
    "population_proper": "148971"
  }, 
  {
    "city": "Sayama", 
    "lat": "35.8530", 
    "lng": "139.4122", 
    "country": "Japan", 
    "iso2": "JP", 
    "admin_name": "Saitama", 
    "capital": "", 
    "population": "148474", 
    "population_proper": "148474"
  }, 
  {
    "city": "Komaki", 
    "lat": "35.2910", 
    "lng": "136.9121", 
    "country": "Japan", 
    "iso2": "JP", 
    "admin_name": "Aichi", 
    "capital": "", 
    "population": "147897", 
    "population_proper": "147897"
  }, 
  {
    "city": "Tama", 
    "lat": "35.6369", 
    "lng": "139.4463", 
    "country": "Japan", 
    "iso2": "JP", 
    "admin_name": "Tōkyō", 
    "capital": "", 
    "population": "147252", 
    "population_proper": "147252"
  }, 
  {
    "city": "Yonago", 
    "lat": "35.4333", 
    "lng": "133.3333", 
    "country": "Japan", 
    "iso2": "JP", 
    "admin_name": "Tottori", 
    "capital": "", 
    "population": "147210", 
    "population_proper": "147210"
  }, 
  {
    "city": "Iruma", 
    "lat": "35.8358", 
    "lng": "139.3911", 
    "country": "Japan", 
    "iso2": "JP", 
    "admin_name": "Saitama", 
    "capital": "", 
    "population": "145778", 
    "population_proper": "145778"
  }, 
  {
    "city": "Asaka", 
    "lat": "35.7972", 
    "lng": "139.5939", 
    "country": "Japan", 
    "iso2": "JP", 
    "admin_name": "Saitama", 
    "capital": "", 
    "population": "143915", 
    "population_proper": "143915"
  }, 
  {
    "city": "Kakamigahara", 
    "lat": "35.3988", 
    "lng": "136.8484", 
    "country": "Japan", 
    "iso2": "JP", 
    "admin_name": "Gifu", 
    "capital": "", 
    "population": "143641", 
    "population_proper": "143641"
  }, 
  {
    "city": "Kusatsu", 
    "lat": "35.0167", 
    "lng": "135.9667", 
    "country": "Japan", 
    "iso2": "JP", 
    "admin_name": "Shiga", 
    "capital": "", 
    "population": "143230", 
    "population_proper": "143230"
  }, 
  {
    "city": "Ashikaga", 
    "lat": "36.3402", 
    "lng": "139.4497", 
    "country": "Japan", 
    "iso2": "JP", 
    "admin_name": "Tochigi", 
    "capital": "", 
    "population": "142882", 
    "population_proper": "142882"
  }, 
  {
    "city": "Toda", 
    "lat": "35.8176", 
    "lng": "139.6779", 
    "country": "Japan", 
    "iso2": "JP", 
    "admin_name": "Saitama", 
    "capital": "", 
    "population": "142352", 
    "population_proper": "142352"
  }, 
  {
    "city": "Okinawa", 
    "lat": "26.3342", 
    "lng": "127.8056", 
    "country": "Japan", 
    "iso2": "JP", 
    "admin_name": "Okinawa", 
    "capital": "", 
    "population": "142094", 
    "population_proper": "142094"
  }, 
  {
    "city": "Misato", 
    "lat": "35.8301", 
    "lng": "139.8723", 
    "country": "Japan", 
    "iso2": "JP", 
    "admin_name": "Chiba", 
    "capital": "", 
    "population": "141913", 
    "population_proper": "141913"
  }, 
  {
    "city": "Moriguchi", 
    "lat": "34.7375", 
    "lng": "135.5642", 
    "country": "Japan", 
    "iso2": "JP", 
    "admin_name": "Ōsaka", 
    "capital": "", 
    "population": "141849", 
    "population_proper": "141849"
  }, 
  {
    "city": "Fukayachō", 
    "lat": "36.1975", 
    "lng": "139.2815", 
    "country": "Japan", 
    "iso2": "JP", 
    "admin_name": "Saitama", 
    "capital": "", 
    "population": "141336", 
    "population_proper": "140930"
  }, 
  {
    "city": "Fujita", 
    "lat": "34.8674", 
    "lng": "138.2577", 
    "country": "Japan", 
    "iso2": "JP", 
    "admin_name": "Shizuoka", 
    "capital": "", 
    "population": "140947", 
    "population_proper": "140947"
  }, 
  {
    "city": "Ishizaki", 
    "lat": "38.4176", 
    "lng": "141.3027", 
    "country": "Japan", 
    "iso2": "JP", 
    "admin_name": "Miyagi", 
    "capital": "", 
    "population": "138856", 
    "population_proper": "138856"
  }, 
  {
    "city": "Kuwana", 
    "lat": "35.0667", 
    "lng": "136.6833", 
    "country": "Japan", 
    "iso2": "JP", 
    "admin_name": "Mie", 
    "capital": "", 
    "population": "138798", 
    "population_proper": "138798"
  }, 
  {
    "city": "Koga", 
    "lat": "36.1782", 
    "lng": "139.7554", 
    "country": "Japan", 
    "iso2": "JP", 
    "admin_name": "Ibaraki", 
    "capital": "", 
    "population": "138237", 
    "population_proper": "138237"
  }, 
  {
    "city": "Shūnan", 
    "lat": "34.0500", 
    "lng": "131.8000", 
    "country": "Japan", 
    "iso2": "JP", 
    "admin_name": "Yamaguchi", 
    "capital": "", 
    "population": "137899", 
    "population_proper": "137899"
  }, 
  {
    "city": "Tsuchiura", 
    "lat": "36.0667", 
    "lng": "140.2000", 
    "country": "Japan", 
    "iso2": "JP", 
    "admin_name": "Ibaraki", 
    "capital": "", 
    "population": "137825", 
    "population_proper": "137825"
  }, 
  {
    "city": "Minō", 
    "lat": "34.8269", 
    "lng": "135.4704", 
    "country": "Japan", 
    "iso2": "JP", 
    "admin_name": "Ōsaka", 
    "capital": "", 
    "population": "136976", 
    "population_proper": "136976"
  }, 
  {
    "city": "Kisarazu", 
    "lat": "35.3760", 
    "lng": "139.9168", 
    "country": "Japan", 
    "iso2": "JP", 
    "admin_name": "Chiba", 
    "capital": "", 
    "population": "136118", 
    "population_proper": "136118"
  }, 
  {
    "city": "Yaizu", 
    "lat": "34.8669", 
    "lng": "138.3247", 
    "country": "Japan", 
    "iso2": "JP", 
    "admin_name": "Shizuoka", 
    "capital": "", 
    "population": "136028", 
    "population_proper": "136028"
  }, 
  {
    "city": "Ebina", 
    "lat": "35.4464", 
    "lng": "139.3908", 
    "country": "Japan", 
    "iso2": "JP", 
    "admin_name": "Kanagawa", 
    "capital": "", 
    "population": "135557", 
    "population_proper": "135557"
  }, 
  {
    "city": "Inazawa", 
    "lat": "35.2647", 
    "lng": "136.7969", 
    "country": "Japan", 
    "iso2": "JP", 
    "admin_name": "Aichi", 
    "capital": "", 
    "population": "134938", 
    "population_proper": "134938"
  }, 
  {
    "city": "Minoo", 
    "lat": "34.8333", 
    "lng": "135.4667", 
    "country": "Japan", 
    "iso2": "JP", 
    "admin_name": "Ōsaka", 
    "capital": "", 
    "population": "134435", 
    "population_proper": "134435"
  }, 
  {
    "city": "Isahaya", 
    "lat": "32.8500", 
    "lng": "130.0667", 
    "country": "Japan", 
    "iso2": "JP", 
    "admin_name": "Nagasaki", 
    "capital": "", 
    "population": "133512", 
    "population_proper": "133512"
  }, 
  {
    "city": "Ōme", 
    "lat": "35.7880", 
    "lng": "139.2758", 
    "country": "Japan", 
    "iso2": "JP", 
    "admin_name": "Tōkyō", 
    "capital": "", 
    "population": "132436", 
    "population_proper": "132436"
  }, 
  {
    "city": "Zama", 
    "lat": "35.4833", 
    "lng": "139.4000", 
    "country": "Japan", 
    "iso2": "JP", 
    "admin_name": "Kanagawa", 
    "capital": "", 
    "population": "130753", 
    "population_proper": "130753"
  }, 
  {
    "city": "Narita", 
    "lat": "35.7767", 
    "lng": "140.3183", 
    "country": "Japan", 
    "iso2": "JP", 
    "admin_name": "Chiba", 
    "capital": "", 
    "population": "130689", 
    "population_proper": "130689"
  }, 
  {
    "city": "Abiko", 
    "lat": "35.8667", 
    "lng": "140.0333", 
    "country": "Japan", 
    "iso2": "JP", 
    "admin_name": "Chiba", 
    "capital": "", 
    "population": "130290", 
    "population_proper": "130290"
  }, 
  {
    "city": "Onomichi", 
    "lat": "34.4167", 
    "lng": "133.2000", 
    "country": "Japan", 
    "iso2": "JP", 
    "admin_name": "Hiroshima", 
    "capital": "", 
    "population": "130143", 
    "population_proper": "130143"
  }, 
  {
    "city": "Kokubunji", 
    "lat": "35.7109", 
    "lng": "139.4622", 
    "country": "Japan", 
    "iso2": "JP", 
    "admin_name": "Tōkyō", 
    "capital": "", 
    "population": "129619", 
    "population_proper": "129619"
  }, 
  {
    "city": "Iwakuni", 
    "lat": "34.1664", 
    "lng": "132.2189", 
    "country": "Japan", 
    "iso2": "JP", 
    "admin_name": "Yamaguchi", 
    "capital": "", 
    "population": "128401", 
    "population_proper": "128401"
  }, 
  {
    "city": "Seto", 
    "lat": "35.2236", 
    "lng": "137.0842", 
    "country": "Japan", 
    "iso2": "JP", 
    "admin_name": "Aichi", 
    "capital": "", 
    "population": "127327", 
    "population_proper": "127327"
  }, 
  {
    "city": "Ōmiyachō", 
    "lat": "35.2221", 
    "lng": "138.6216", 
    "country": "Japan", 
    "iso2": "JP", 
    "admin_name": "Shizuoka", 
    "capital": "", 
    "population": "127252", 
    "population_proper": "127252"
  }, 
  {
    "city": "Koganei", 
    "lat": "35.6995", 
    "lng": "139.5030", 
    "country": "Japan", 
    "iso2": "JP", 
    "admin_name": "Tōkyō", 
    "capital": "", 
    "population": "127226", 
    "population_proper": "127226"
  }, 
  {
    "city": "Ōsaki", 
    "lat": "38.5771", 
    "lng": "140.9556", 
    "country": "Japan", 
    "iso2": "JP", 
    "admin_name": "Miyagi", 
    "capital": "", 
    "population": "127135", 
    "population_proper": "127135"
  }, 
  {
    "city": "Iizuka", 
    "lat": "33.6500", 
    "lng": "130.6833", 
    "country": "Japan", 
    "iso2": "JP", 
    "admin_name": "Fukuoka", 
    "capital": "", 
    "population": "126136", 
    "population_proper": "126136"
  }, 
  {
    "city": "Kirishima", 
    "lat": "31.7406", 
    "lng": "130.7631", 
    "country": "Japan", 
    "iso2": "JP", 
    "admin_name": "Kagoshima", 
    "capital": "", 
    "population": "123812", 
    "population_proper": "123812"
  }, 
  {
    "city": "Ise", 
    "lat": "34.4833", 
    "lng": "136.7167", 
    "country": "Japan", 
    "iso2": "JP", 
    "admin_name": "Mie", 
    "capital": "", 
    "population": "122432", 
    "population_proper": "122432"
  }, 
  {
    "city": "Uruma", 
    "lat": "26.3792", 
    "lng": "127.8575", 
    "country": "Japan", 
    "iso2": "JP", 
    "admin_name": "Okinawa", 
    "capital": "", 
    "population": "122371", 
    "population_proper": "122371"
  }, 
  {
    "city": "Honmachi", 
    "lat": "32.5000", 
    "lng": "130.6000", 
    "country": "Japan", 
    "iso2": "JP", 
    "admin_name": "Kumamoto", 
    "capital": "", 
    "population": "122134", 
    "population_proper": "122134"
  }, 
  {
    "city": "Kashiwara", 
    "lat": "34.5167", 
    "lng": "135.8000", 
    "country": "Japan", 
    "iso2": "JP", 
    "admin_name": "Nara", 
    "capital": "", 
    "population": "121604", 
    "population_proper": "121604"
  }, 
  {
    "city": "Tsuruoka", 
    "lat": "38.7272", 
    "lng": "139.8267", 
    "country": "Japan", 
    "iso2": "JP", 
    "admin_name": "Yamagata", 
    "capital": "", 
    "population": "121371", 
    "population_proper": "121371"
  }, 
  {
    "city": "Ebetsu", 
    "lat": "43.1037", 
    "lng": "141.5362", 
    "country": "Japan", 
    "iso2": "JP", 
    "admin_name": "Hokkaidō", 
    "capital": "", 
    "population": "119819", 
    "population_proper": "119819"
  }, 
  {
    "city": "Daitōchō", 
    "lat": "34.7167", 
    "lng": "135.6167", 
    "country": "Japan", 
    "iso2": "JP", 
    "admin_name": "Ōsaka", 
    "capital": "", 
    "population": "118812", 
    "population_proper": "118812"
  }, 
  {
    "city": "Kadoma", 
    "lat": "34.7333", 
    "lng": "135.5833", 
    "country": "Japan", 
    "iso2": "JP", 
    "admin_name": "Ōsaka", 
    "capital": "", 
    "population": "118319", 
    "population_proper": "118319"
  }, 
  {
    "city": "Aizuwakamatsu", 
    "lat": "37.4948", 
    "lng": "139.9298", 
    "country": "Japan", 
    "iso2": "JP", 
    "admin_name": "Fukushima", 
    "capital": "", 
    "population": "117924", 
    "population_proper": "117924"
  }, 
  {
    "city": "Nobeoka", 
    "lat": "32.5833", 
    "lng": "131.6667", 
    "country": "Japan", 
    "iso2": "JP", 
    "admin_name": "Miyazaki", 
    "capital": "", 
    "population": "117711", 
    "population_proper": "117711"
  }, 
  {
    "city": "Handa", 
    "lat": "34.8919", 
    "lng": "136.9381", 
    "country": "Japan", 
    "iso2": "JP", 
    "admin_name": "Aichi", 
    "capital": "", 
    "population": "117544", 
    "population_proper": "117544"
  }, 
  {
    "city": "Matsubara", 
    "lat": "34.5833", 
    "lng": "135.5500", 
    "country": "Japan", 
    "iso2": "JP", 
    "admin_name": "Ōsaka", 
    "capital": "", 
    "population": "117186", 
    "population_proper": "117186"
  }, 
  {
    "city": "Kōnosu", 
    "lat": "36.0659", 
    "lng": "139.5222", 
    "country": "Japan", 
    "iso2": "JP", 
    "admin_name": "Saitama", 
    "capital": "", 
    "population": "116777", 
    "population_proper": "116777"
  }, 
  {
    "city": "Ikoma", 
    "lat": "34.7000", 
    "lng": "135.7000", 
    "country": "Japan", 
    "iso2": "JP", 
    "admin_name": "Nara", 
    "capital": "", 
    "population": "116518", 
    "population_proper": "116518"
  }, 
  {
    "city": "Honchō", 
    "lat": "35.7580", 
    "lng": "139.5299", 
    "country": "Japan", 
    "iso2": "JP", 
    "admin_name": "Saitama", 
    "capital": "", 
    "population": "116477", 
    "population_proper": "116477"
  }, 
  {
    "city": "Karatsu", 
    "lat": "33.4500", 
    "lng": "129.9667", 
    "country": "Japan", 
    "iso2": "JP", 
    "admin_name": "Saga", 
    "capital": "", 
    "population": "116052", 
    "population_proper": "116052"
  }, 
  {
    "city": "Beppu", 
    "lat": "33.2795", 
    "lng": "131.5000", 
    "country": "Japan", 
    "iso2": "JP", 
    "admin_name": "Ōita", 
    "capital": "", 
    "population": "115992", 
    "population_proper": "115992"
  }, 
  {
    "city": "Urasoe", 
    "lat": "26.2458", 
    "lng": "127.7219", 
    "country": "Japan", 
    "iso2": "JP", 
    "admin_name": "Okinawa", 
    "capital": "", 
    "population": "115855", 
    "population_proper": "115855"
  }, 
  {
    "city": "Nasushiobara", 
    "lat": "36.9617", 
    "lng": "140.0461", 
    "country": "Japan", 
    "iso2": "JP", 
    "admin_name": "Tochigi", 
    "capital": "", 
    "population": "115602", 
    "population_proper": "115602"
  }, 
  {
    "city": "Kōenchō", 
    "lat": "43.8028", 
    "lng": "143.8944", 
    "country": "Japan", 
    "iso2": "JP", 
    "admin_name": "Hokkaidō", 
    "capital": "", 
    "population": "115441", 
    "population_proper": "115441"
  }, 
  {
    "city": "Niihama", 
    "lat": "33.9667", 
    "lng": "133.2833", 
    "country": "Japan", 
    "iso2": "JP", 
    "admin_name": "Ehime", 
    "capital": "", 
    "population": "114971", 
    "population_proper": "114971"
  }, 
  {
    "city": "Sano", 
    "lat": "36.3145", 
    "lng": "139.5783", 
    "country": "Japan", 
    "iso2": "JP", 
    "admin_name": "Tochigi", 
    "capital": "", 
    "population": "114842", 
    "population_proper": "114842"
  }, 
  {
    "city": "Hatsukaichi", 
    "lat": "34.3500", 
    "lng": "132.3333", 
    "country": "Japan", 
    "iso2": "JP", 
    "admin_name": "Hiroshima", 
    "capital": "", 
    "population": "114699", 
    "population_proper": "114699"
  }, 
  {
    "city": "Kakegawa", 
    "lat": "34.7687", 
    "lng": "137.9984", 
    "country": "Japan", 
    "iso2": "JP", 
    "admin_name": "Shizuoka", 
    "capital": "", 
    "population": "113954", 
    "population_proper": "113954"
  }, 
  {
    "city": "Nagahama", 
    "lat": "35.3833", 
    "lng": "136.2833", 
    "country": "Japan", 
    "iso2": "JP", 
    "admin_name": "Shiga", 
    "capital": "", 
    "population": "113740", 
    "population_proper": "113740"
  }, 
  {
    "city": "Hikone", 
    "lat": "35.2667", 
    "lng": "136.2667", 
    "country": "Japan", 
    "iso2": "JP", 
    "admin_name": "Shiga", 
    "capital": "", 
    "population": "113191", 
    "population_proper": "113191"
  }, 
  {
    "city": "Hōfu", 
    "lat": "34.0500", 
    "lng": "131.5667", 
    "country": "Japan", 
    "iso2": "JP", 
    "admin_name": "Yamaguchi", 
    "capital": "", 
    "population": "113170", 
    "population_proper": "113170"
  }, 
  {
    "city": "Tōkai", 
    "lat": "35.0231", 
    "lng": "136.9022", 
    "country": "Japan", 
    "iso2": "JP", 
    "admin_name": "Aichi", 
    "capital": "", 
    "population": "113144", 
    "population_proper": "113144"
  }, 
  {
    "city": "Fujimino", 
    "lat": "35.8795", 
    "lng": "139.5198", 
    "country": "Japan", 
    "iso2": "JP", 
    "admin_name": "Saitama", 
    "capital": "", 
    "population": "112745", 
    "population_proper": "112745"
  }, 
  {
    "city": "Higashiōmi", 
    "lat": "35.1167", 
    "lng": "136.2000", 
    "country": "Japan", 
    "iso2": "JP", 
    "admin_name": "Shiga", 
    "capital": "", 
    "population": "112459", 
    "population_proper": "112459"
  }, 
  {
    "city": "Otaru", 
    "lat": "43.1907", 
    "lng": "140.9944", 
    "country": "Japan", 
    "iso2": "JP", 
    "admin_name": "Hokkaidō", 
    "capital": "", 
    "population": "112452", 
    "population_proper": "112452"
  }, 
  {
    "city": "Ōshū", 
    "lat": "39.1445", 
    "lng": "141.1391", 
    "country": "Japan", 
    "iso2": "JP", 
    "admin_name": "Iwate", 
    "capital": "", 
    "population": "112402", 
    "population_proper": "112402"
  }, 
  {
    "city": "Akishima", 
    "lat": "35.7057", 
    "lng": "139.3535", 
    "country": "Japan", 
    "iso2": "JP", 
    "admin_name": "Tōkyō", 
    "capital": "", 
    "population": "112110", 
    "population_proper": "112110"
  }, 
  {
    "city": "Fujimi", 
    "lat": "35.8566", 
    "lng": "139.5492", 
    "country": "Japan", 
    "iso2": "JP", 
    "admin_name": "Saitama", 
    "capital": "", 
    "population": "111858", 
    "population_proper": "111858"
  }, 
  {
    "city": "Ichinoseki", 
    "lat": "38.9347", 
    "lng": "141.1266", 
    "country": "Japan", 
    "iso2": "JP", 
    "admin_name": "Iwate", 
    "capital": "", 
    "population": "111824", 
    "population_proper": "111824"
  }, 
  {
    "city": "Kasuga", 
    "lat": "33.5333", 
    "lng": "130.4667", 
    "country": "Japan", 
    "iso2": "JP", 
    "admin_name": "Fukuoka", 
    "capital": "", 
    "population": "111144", 
    "population_proper": "111144"
  }, 
  {
    "city": "Kazo", 
    "lat": "36.1314", 
    "lng": "139.6018", 
    "country": "Japan", 
    "iso2": "JP", 
    "admin_name": "Saitama", 
    "capital": "", 
    "population": "110622", 
    "population_proper": "110622"
  }, 
  {
    "city": "Shirayamamachi", 
    "lat": "36.5166", 
    "lng": "136.5656", 
    "country": "Japan", 
    "iso2": "JP", 
    "admin_name": "Ishikawa", 
    "capital": "", 
    "population": "110135", 
    "population_proper": "110135"
  }, 
  {
    "city": "Ōmuta", 
    "lat": "33.0333", 
    "lng": "130.4500", 
    "country": "Japan", 
    "iso2": "JP", 
    "admin_name": "Fukuoka", 
    "capital": "", 
    "population": "110054", 
    "population_proper": "110054"
  }, 
  {
    "city": "Kamagaya", 
    "lat": "35.7768", 
    "lng": "140.0008", 
    "country": "Japan", 
    "iso2": "JP", 
    "admin_name": "Chiba", 
    "capital": "", 
    "population": "109370", 
    "population_proper": "109370"
  }, 
  {
    "city": "Sandachō", 
    "lat": "34.8833", 
    "lng": "135.2333", 
    "country": "Japan", 
    "iso2": "JP", 
    "admin_name": "Hyōgo", 
    "capital": "", 
    "population": "109243", 
    "population_proper": "109243"
  }, 
  {
    "city": "Marugame", 
    "lat": "34.2833", 
    "lng": "133.8000", 
    "country": "Japan", 
    "iso2": "JP", 
    "admin_name": "Kagawa", 
    "capital": "", 
    "population": "109165", 
    "population_proper": "109165"
  }, 
  {
    "city": "Tondabayashichō", 
    "lat": "34.5000", 
    "lng": "135.6000", 
    "country": "Japan", 
    "iso2": "JP", 
    "admin_name": "Ōsaka", 
    "capital": "", 
    "population": "108735", 
    "population_proper": "108735"
  }, 
  {
    "city": "Habikino", 
    "lat": "34.5500", 
    "lng": "135.6000", 
    "country": "Japan", 
    "iso2": "JP", 
    "admin_name": "Ōsaka", 
    "capital": "", 
    "population": "108373", 
    "population_proper": "108373"
  }, 
  {
    "city": "Mineshita", 
    "lat": "35.1185", 
    "lng": "138.9186", 
    "country": "Japan", 
    "iso2": "JP", 
    "admin_name": "Shizuoka", 
    "capital": "", 
    "population": "107416", 
    "population_proper": "107416"
  }, 
  {
    "city": "Tajimi", 
    "lat": "35.3328", 
    "lng": "137.1316", 
    "country": "Japan", 
    "iso2": "JP", 
    "admin_name": "Gifu", 
    "capital": "", 
    "population": "106746", 
    "population_proper": "106746"
  }, 
  {
    "city": "Komatsu", 
    "lat": "36.4083", 
    "lng": "136.4455", 
    "country": "Japan", 
    "iso2": "JP", 
    "admin_name": "Ishikawa", 
    "capital": "", 
    "population": "106023", 
    "population_proper": "106023"
  }, 
  {
    "city": "Kiryū", 
    "lat": "36.4052", 
    "lng": "139.4973", 
    "country": "Japan", 
    "iso2": "JP", 
    "admin_name": "Gunma", 
    "capital": "", 
    "population": "105465", 
    "population_proper": "105465"
  }, 
  {
    "city": "Ikeda", 
    "lat": "34.8167", 
    "lng": "135.4333", 
    "country": "Japan", 
    "iso2": "JP", 
    "admin_name": "Hyōgo", 
    "capital": "", 
    "population": "104148", 
    "population_proper": "104148"
  }, 
  {
    "city": "Toride", 
    "lat": "35.9115", 
    "lng": "140.0504", 
    "country": "Japan", 
    "iso2": "JP", 
    "admin_name": "Ibaraki", 
    "capital": "", 
    "population": "103908", 
    "population_proper": "103908"
  }, 
  {
    "city": "Saijō", 
    "lat": "33.9167", 
    "lng": "133.1833", 
    "country": "Japan", 
    "iso2": "JP", 
    "admin_name": "Ehime", 
    "capital": "", 
    "population": "103760", 
    "population_proper": "103760"
  }, 
  {
    "city": "Inzai", 
    "lat": "35.8333", 
    "lng": "140.1500", 
    "country": "Japan", 
    "iso2": "JP", 
    "admin_name": "Chiba", 
    "capital": "", 
    "population": "103677", 
    "population_proper": "103084"
  }, 
  {
    "city": "Chikushino", 
    "lat": "33.5000", 
    "lng": "130.5167", 
    "country": "Japan", 
    "iso2": "JP", 
    "admin_name": "Fukuoka", 
    "capital": "", 
    "population": "103185", 
    "population_proper": "103185"
  }, 
  {
    "city": "Isehara", 
    "lat": "35.3833", 
    "lng": "139.3000", 
    "country": "Japan", 
    "iso2": "JP", 
    "admin_name": "Kanagawa", 
    "capital": "", 
    "population": "102088", 
    "population_proper": "102088"
  }, 
  {
    "city": "Shibuya", 
    "lat": "35.6536", 
    "lng": "139.7092", 
    "country": "Japan", 
    "iso2": "JP", 
    "admin_name": "Tōkyō", 
    "capital": "", 
    "population": "102056", 
    "population_proper": "102056"
  }, 
  {
    "city": "Ōnojō", 
    "lat": "33.5333", 
    "lng": "130.4833", 
    "country": "Japan", 
    "iso2": "JP", 
    "admin_name": "Fukuoka", 
    "capital": "", 
    "population": "101603", 
    "population_proper": "101603"
  }, 
  {
    "city": "Kanoya", 
    "lat": "31.3831", 
    "lng": "130.8519", 
    "country": "Japan", 
    "iso2": "JP", 
    "admin_name": "Kagoshima", 
    "capital": "", 
    "population": "100880", 
    "population_proper": "100880"
  }, 
  {
    "city": "Sakado", 
    "lat": "35.9573", 
    "lng": "139.4030", 
    "country": "Japan", 
    "iso2": "JP", 
    "admin_name": "Saitama", 
    "capital": "", 
    "population": "100829", 
    "population_proper": "100829"
  }, 
  {
    "city": "Kawachinagano", 
    "lat": "34.4667", 
    "lng": "135.5667", 
    "country": "Japan", 
    "iso2": "JP", 
    "admin_name": "Ōsaka", 
    "capital": "", 
    "population": "100415", 
    "population_proper": "100415"
  }, 
  {
    "city": "Chikusei", 
    "lat": "36.3071", 
    "lng": "139.9831", 
    "country": "Japan", 
    "iso2": "JP", 
    "admin_name": "Ibaraki", 
    "capital": "", 
    "population": "99758", 
    "population_proper": "99758"
  }, 
  {
    "city": "Kani", 
    "lat": "35.4261", 
    "lng": "137.0613", 
    "country": "Japan", 
    "iso2": "JP", 
    "admin_name": "Gifu", 
    "capital": "", 
    "population": "99545", 
    "population_proper": "99545"
  }, 
  {
    "city": "Tsuyama", 
    "lat": "35.0692", 
    "lng": "134.0044", 
    "country": "Japan", 
    "iso2": "JP", 
    "admin_name": "Okayama", 
    "capital": "", 
    "population": "99410", 
    "population_proper": "99410"
  }, 
  {
    "city": "Izumisano", 
    "lat": "34.4000", 
    "lng": "135.3333", 
    "country": "Japan", 
    "iso2": "JP", 
    "admin_name": "Ōsaka", 
    "capital": "", 
    "population": "99328", 
    "population_proper": "99328"
  }, 
  {
    "city": "Ginowan", 
    "lat": "26.2817", 
    "lng": "127.7783", 
    "country": "Japan", 
    "iso2": "JP", 
    "admin_name": "Okinawa", 
    "capital": "", 
    "population": "99256", 
    "population_proper": "99256"
  }, 
  {
    "city": "Sakata", 
    "lat": "38.9145", 
    "lng": "139.8364", 
    "country": "Japan", 
    "iso2": "JP", 
    "admin_name": "Yamagata", 
    "capital": "", 
    "population": "99235", 
    "population_proper": "99235"
  }, 
  {
    "city": "Itoshima", 
    "lat": "33.5539", 
    "lng": "130.1978", 
    "country": "Japan", 
    "iso2": "JP", 
    "admin_name": "Fukuoka", 
    "capital": "", 
    "population": "98527", 
    "population_proper": "98527"
  }, 
  {
    "city": "Saku", 
    "lat": "36.2488", 
    "lng": "138.4769", 
    "country": "Japan", 
    "iso2": "JP", 
    "admin_name": "Nagano", 
    "capital": "", 
    "population": "98292", 
    "population_proper": "98292"
  }, 
  {
    "city": "Chitose", 
    "lat": "42.8210", 
    "lng": "141.6509", 
    "country": "Japan", 
    "iso2": "JP", 
    "admin_name": "Hokkaidō", 
    "capital": "", 
    "population": "97945", 
    "population_proper": "97945"
  }, 
  {
    "city": "Kōnan", 
    "lat": "35.3321", 
    "lng": "136.8707", 
    "country": "Japan", 
    "iso2": "JP", 
    "admin_name": "Aichi", 
    "capital": "", 
    "population": "97435", 
    "population_proper": "97435"
  }, 
  {
    "city": "Munakata", 
    "lat": "33.8000", 
    "lng": "130.5333", 
    "country": "Japan", 
    "iso2": "JP", 
    "admin_name": "Fukuoka", 
    "capital": "", 
    "population": "97041", 
    "population_proper": "97041"
  }, 
  {
    "city": "Iida", 
    "lat": "35.5150", 
    "lng": "137.8214", 
    "country": "Japan", 
    "iso2": "JP", 
    "admin_name": "Nagano", 
    "capital": "", 
    "population": "96642", 
    "population_proper": "96642"
  }, 
  {
    "city": "Ōmura", 
    "lat": "32.9000", 
    "lng": "129.9583", 
    "country": "Japan", 
    "iso2": "JP", 
    "admin_name": "Nagasaki", 
    "capital": "", 
    "population": "95619", 
    "population_proper": "95590"
  }, 
  {
    "city": "Kamisu", 
    "lat": "35.8899", 
    "lng": "140.6645", 
    "country": "Japan", 
    "iso2": "JP", 
    "admin_name": "Ibaraki", 
    "capital": "", 
    "population": "95471", 
    "population_proper": "95471"
  }, 
  {
    "city": "Shimada", 
    "lat": "34.8363", 
    "lng": "138.1927", 
    "country": "Japan", 
    "iso2": "JP", 
    "admin_name": "Shizuoka", 
    "capital": "", 
    "population": "95198", 
    "population_proper": "95198"
  }, 
  {
    "city": "Kanuma", 
    "lat": "36.5671", 
    "lng": "139.7451", 
    "country": "Japan", 
    "iso2": "JP", 
    "admin_name": "Tochigi", 
    "capital": "", 
    "population": "94591", 
    "population_proper": "94591"
  }, 
  {
    "city": "Shibata", 
    "lat": "37.9479", 
    "lng": "139.3273", 
    "country": "Japan", 
    "iso2": "JP", 
    "admin_name": "Niigata", 
    "capital": "", 
    "population": "94258", 
    "population_proper": "94258"
  }, 
  {
    "city": "Ashiya", 
    "lat": "34.7278", 
    "lng": "135.3033", 
    "country": "Japan", 
    "iso2": "JP", 
    "admin_name": "Hyōgo", 
    "capital": "", 
    "population": "94116", 
    "population_proper": "94116"
  }, 
  {
    "city": "Azumino", 
    "lat": "36.3039", 
    "lng": "137.9058", 
    "country": "Japan", 
    "iso2": "JP", 
    "admin_name": "Nagano", 
    "capital": "", 
    "population": "93927", 
    "population_proper": "93927"
  }, 
  {
    "city": "Sanjō", 
    "lat": "37.6368", 
    "lng": "138.9617", 
    "country": "Japan", 
    "iso2": "JP", 
    "admin_name": "Niigata", 
    "capital": "", 
    "population": "93671", 
    "population_proper": "93671"
  }, 
  {
    "city": "Yashio", 
    "lat": "35.8225", 
    "lng": "139.8392", 
    "country": "Japan", 
    "iso2": "JP", 
    "admin_name": "Saitama", 
    "capital": "", 
    "population": "93283", 
    "population_proper": "93283"
  }, 
  {
    "city": "Yotsukaidō", 
    "lat": "35.6698", 
    "lng": "140.1679", 
    "country": "Japan", 
    "iso2": "JP", 
    "admin_name": "Chiba", 
    "capital": "", 
    "population": "93233", 
    "population_proper": "93233"
  }, 
  {
    "city": "Nisshin", 
    "lat": "35.1320", 
    "lng": "137.0394", 
    "country": "Japan", 
    "iso2": "JP", 
    "admin_name": "Aichi", 
    "capital": "", 
    "population": "92823", 
    "population_proper": "92823"
  }, 
  {
    "city": "Hanamaki Onsen", 
    "lat": "39.3886", 
    "lng": "141.1169", 
    "country": "Japan", 
    "iso2": "JP", 
    "admin_name": "Iwate", 
    "capital": "", 
    "population": "92815", 
    "population_proper": "92815"
  }, 
  {
    "city": "Inagi", 
    "lat": "35.6379", 
    "lng": "139.5046", 
    "country": "Japan", 
    "iso2": "JP", 
    "admin_name": "Tōkyō", 
    "capital": "", 
    "population": "92604", 
    "population_proper": "92604"
  }, 
  {
    "city": "Ōbu", 
    "lat": "35.0117", 
    "lng": "136.9637", 
    "country": "Japan", 
    "iso2": "JP", 
    "admin_name": "Aichi", 
    "capital": "", 
    "population": "92562", 
    "population_proper": "92562"
  }, 
  {
    "city": "Higashi-Matsuyama", 
    "lat": "36.0422", 
    "lng": "139.3999", 
    "country": "Japan", 
    "iso2": "JP", 
    "admin_name": "Saitama", 
    "capital": "", 
    "population": "92440", 
    "population_proper": "92440"
  }, 
  {
    "city": "Kitakami", 
    "lat": "39.2867", 
    "lng": "141.1132", 
    "country": "Japan", 
    "iso2": "JP", 
    "admin_name": "Iwate", 
    "capital": "", 
    "population": "92348", 
    "population_proper": "92348"
  }, 
  {
    "city": "Satsumasendai", 
    "lat": "31.8167", 
    "lng": "130.3000", 
    "country": "Japan", 
    "iso2": "JP", 
    "admin_name": "Kagoshima", 
    "capital": "", 
    "population": "91875", 
    "population_proper": "91875"
  }, 
  {
    "city": "Imizuchō", 
    "lat": "36.7306", 
    "lng": "137.0756", 
    "country": "Japan", 
    "iso2": "JP", 
    "admin_name": "Toyama", 
    "capital": "", 
    "population": "90201", 
    "population_proper": "90201"
  }, 
  {
    "city": "Mihara", 
    "lat": "34.4000", 
    "lng": "133.0833", 
    "country": "Japan", 
    "iso2": "JP", 
    "admin_name": "Hiroshima", 
    "capital": "", 
    "population": "89972", 
    "population_proper": "89972"
  }, 
  {
    "city": "Kōka", 
    "lat": "34.9667", 
    "lng": "136.1667", 
    "country": "Japan", 
    "iso2": "JP", 
    "admin_name": "Shiga", 
    "capital": "", 
    "population": "88538", 
    "population_proper": "88538"
  }, 
  {
    "city": "Sakai", 
    "lat": "36.1669", 
    "lng": "136.2314", 
    "country": "Japan", 
    "iso2": "JP", 
    "admin_name": "Fukui", 
    "capital": "", 
    "population": "87945", 
    "population_proper": "87945"
  }, 
  {
    "city": "Ama", 
    "lat": "35.2004", 
    "lng": "136.7832", 
    "country": "Japan", 
    "iso2": "JP", 
    "admin_name": "Aichi", 
    "capital": "", 
    "population": "87668", 
    "population_proper": "87668"
  }, 
  {
    "city": "Takasagochō-takasemachi", 
    "lat": "34.7667", 
    "lng": "134.7833", 
    "country": "Japan", 
    "iso2": "JP", 
    "admin_name": "Hyōgo", 
    "capital": "", 
    "population": "87220", 
    "population_proper": "87220"
  }, 
  {
    "city": "Fukuroi", 
    "lat": "34.7502", 
    "lng": "137.9247", 
    "country": "Japan", 
    "iso2": "JP", 
    "admin_name": "Shizuoka", 
    "capital": "", 
    "population": "86851", 
    "population_proper": "86851"
  }, 
  {
    "city": "Mobara", 
    "lat": "35.4285", 
    "lng": "140.2881", 
    "country": "Japan", 
    "iso2": "JP", 
    "admin_name": "Chiba", 
    "capital": "", 
    "population": "86446", 
    "population_proper": "86446"
  }, 
  {
    "city": "Gotenba", 
    "lat": "35.3087", 
    "lng": "138.9346", 
    "country": "Japan", 
    "iso2": "JP", 
    "admin_name": "Shizuoka", 
    "capital": "", 
    "population": "86334", 
    "population_proper": "86334"
  }, 
  {
    "city": "Settsu", 
    "lat": "34.7772", 
    "lng": "135.5622", 
    "country": "Japan", 
    "iso2": "JP", 
    "admin_name": "Ōsaka", 
    "capital": "", 
    "population": "86168", 
    "population_proper": "86168"
  }, 
  {
    "city": "Kameoka", 
    "lat": "35.0167", 
    "lng": "135.5667", 
    "country": "Japan", 
    "iso2": "JP", 
    "admin_name": "Kyōto", 
    "capital": "", 
    "population": "86112", 
    "population_proper": "86112"
  }, 
  {
    "city": "Kitanagoya", 
    "lat": "35.2456", 
    "lng": "136.8659", 
    "country": "Japan", 
    "iso2": "JP", 
    "admin_name": "Aichi", 
    "capital": "", 
    "population": "86060", 
    "population_proper": "86060"
  }, 
  {
    "city": "Iga", 
    "lat": "34.7667", 
    "lng": "136.1333", 
    "country": "Japan", 
    "iso2": "JP", 
    "admin_name": "Mie", 
    "capital": "", 
    "population": "85883", 
    "population_proper": "85883"
  }, 
  {
    "city": "Sekimachi", 
    "lat": "35.4958", 
    "lng": "136.9180", 
    "country": "Japan", 
    "iso2": "JP", 
    "admin_name": "Gifu", 
    "capital": "", 
    "population": "85636", 
    "population_proper": "85636"
  }, 
  {
    "city": "Takayama", 
    "lat": "36.1460", 
    "lng": "137.2522", 
    "country": "Japan", 
    "iso2": "JP", 
    "admin_name": "Gifu", 
    "capital": "", 
    "population": "85199", 
    "population_proper": "85199"
  }, 
  {
    "city": "Yokotemachi", 
    "lat": "39.3113", 
    "lng": "140.5533", 
    "country": "Japan", 
    "iso2": "JP", 
    "admin_name": "Akita", 
    "capital": "", 
    "population": "84556", 
    "population_proper": "84556"
  }, 
  {
    "city": "Ushiku", 
    "lat": "35.9794", 
    "lng": "140.1496", 
    "country": "Japan", 
    "iso2": "JP", 
    "admin_name": "Ibaraki", 
    "capital": "", 
    "population": "84505", 
    "population_proper": "84505"
  }, 
  {
    "city": "Kaizuka", 
    "lat": "34.4333", 
    "lng": "135.3667", 
    "country": "Japan", 
    "iso2": "JP", 
    "admin_name": "Ōsaka", 
    "capital": "", 
    "population": "84356", 
    "population_proper": "84356"
  }, 
  {
    "city": "Higashiyamato", 
    "lat": "35.7454", 
    "lng": "139.4265", 
    "country": "Japan", 
    "iso2": "JP", 
    "admin_name": "Saitama", 
    "capital": "", 
    "population": "84260", 
    "population_proper": "84260"
  }, 
  {
    "city": "Ayase", 
    "lat": "35.4333", 
    "lng": "139.4333", 
    "country": "Japan", 
    "iso2": "JP", 
    "admin_name": "Kanagawa", 
    "capital": "", 
    "population": "84257", 
    "population_proper": "84257"
  }, 
  {
    "city": "Wakō", 
    "lat": "35.7812", 
    "lng": "139.6057", 
    "country": "Japan", 
    "iso2": "JP", 
    "admin_name": "Saitama", 
    "capital": "", 
    "population": "84120", 
    "population_proper": "84120"
  }, 
  {
    "city": "Kitakōriyamachō", 
    "lat": "34.6500", 
    "lng": "135.7833", 
    "country": "Japan", 
    "iso2": "JP", 
    "admin_name": "Nara", 
    "capital": "", 
    "population": "84007", 
    "population_proper": "84007"
  }, 
  {
    "city": "Chita", 
    "lat": "35.0000", 
    "lng": "136.8667", 
    "country": "Japan", 
    "iso2": "JP", 
    "admin_name": "Aichi", 
    "capital": "", 
    "population": "83881", 
    "population_proper": "83881"
  }, 
  {
    "city": "Komae", 
    "lat": "35.6348", 
    "lng": "139.5787", 
    "country": "Japan", 
    "iso2": "JP", 
    "admin_name": "Tōkyō", 
    "capital": "", 
    "population": "83677", 
    "population_proper": "83677"
  }, 
  {
    "city": "Moriyama", 
    "lat": "35.0586", 
    "lng": "135.9942", 
    "country": "Japan", 
    "iso2": "JP", 
    "admin_name": "Shiga", 
    "capital": "", 
    "population": "83567", 
    "population_proper": "83567"
  }, 
  {
    "city": "Nakatsu", 
    "lat": "33.5992", 
    "lng": "131.1906", 
    "country": "Japan", 
    "iso2": "JP", 
    "admin_name": "Fukuoka", 
    "capital": "", 
    "population": "82714", 
    "population_proper": "82714"
  }, 
  {
    "city": "Owariasahi", 
    "lat": "35.2165", 
    "lng": "137.0354", 
    "country": "Japan", 
    "iso2": "JP", 
    "admin_name": "Aichi", 
    "capital": "", 
    "population": "82336", 
    "population_proper": "82336"
  }, 
  {
    "city": "Shikokuchūō", 
    "lat": "33.9833", 
    "lng": "133.5500", 
    "country": "Japan", 
    "iso2": "JP", 
    "admin_name": "Ehime", 
    "capital": "", 
    "population": "82320", 
    "population_proper": "82320"
  }, 
  {
    "city": "Muroran", 
    "lat": "42.3152", 
    "lng": "140.9740", 
    "country": "Japan", 
    "iso2": "JP", 
    "admin_name": "Hokkaidō", 
    "capital": "", 
    "population": "81580", 
    "population_proper": "81580"
  }, 
  {
    "city": "Ōmihachiman", 
    "lat": "35.1283", 
    "lng": "136.0981", 
    "country": "Japan", 
    "iso2": "JP", 
    "admin_name": "Shiga", 
    "capital": "", 
    "population": "81545", 
    "population_proper": "81545"
  }, 
  {
    "city": "Kimitsu", 
    "lat": "35.3304", 
    "lng": "139.9027", 
    "country": "Japan", 
    "iso2": "JP", 
    "admin_name": "Chiba", 
    "capital": "", 
    "population": "81355", 
    "population_proper": "81355"
  }, 
  {
    "city": "Kashiwazaki", 
    "lat": "37.3719", 
    "lng": "138.5590", 
    "country": "Japan", 
    "iso2": "JP", 
    "admin_name": "Niigata", 
    "capital": "", 
    "population": "81027", 
    "population_proper": "81027"
  }, 
  {
    "city": "Yonezawa", 
    "lat": "37.9222", 
    "lng": "140.1168", 
    "country": "Japan", 
    "iso2": "JP", 
    "admin_name": "Yamagata", 
    "capital": "", 
    "population": "80795", 
    "population_proper": "80795"
  }, 
  {
    "city": "Nagaoka", 
    "lat": "34.9333", 
    "lng": "135.7000", 
    "country": "Japan", 
    "iso2": "JP", 
    "admin_name": "Kyōto", 
    "capital": "", 
    "population": "80423", 
    "population_proper": "80423"
  }, 
  {
    "city": "Echizen", 
    "lat": "35.9035", 
    "lng": "136.1687", 
    "country": "Japan", 
    "iso2": "JP", 
    "admin_name": "Fukui", 
    "capital": "", 
    "population": "80264", 
    "population_proper": "80264"
  }, 
  {
    "city": "Akiruno", 
    "lat": "35.7289", 
    "lng": "139.2941", 
    "country": "Japan", 
    "iso2": "JP", 
    "admin_name": "Tōkyō", 
    "capital": "", 
    "population": "79600", 
    "population_proper": "79600"
  }, 
  {
    "city": "Iwamizawa", 
    "lat": "43.1962", 
    "lng": "141.7759", 
    "country": "Japan", 
    "iso2": "JP", 
    "admin_name": "Hokkaidō", 
    "capital": "", 
    "population": "79361", 
    "population_proper": "79361"
  }, 
  {
    "city": "Gamagōri", 
    "lat": "34.8431", 
    "lng": "137.2196", 
    "country": "Japan", 
    "iso2": "JP", 
    "admin_name": "Aichi", 
    "capital": "", 
    "population": "79292", 
    "population_proper": "79292"
  }, 
  {
    "city": "Natori-shi", 
    "lat": "38.1715", 
    "lng": "140.8918", 
    "country": "Japan", 
    "iso2": "JP", 
    "admin_name": "Miyagi", 
    "capital": "", 
    "population": "79250", 
    "population_proper": "79250"
  }, 
  {
    "city": "Hannō", 
    "lat": "35.8557", 
    "lng": "139.3277", 
    "country": "Japan", 
    "iso2": "JP", 
    "admin_name": "Saitama", 
    "capital": "", 
    "population": "79169", 
    "population_proper": "79169"
  }, 
  {
    "city": "Maizuru", 
    "lat": "35.4667", 
    "lng": "135.3833", 
    "country": "Japan", 
    "iso2": "JP", 
    "admin_name": "Kyōto", 
    "capital": "", 
    "population": "78730", 
    "population_proper": "78730"
  }, 
  {
    "city": "Mooka", 
    "lat": "36.4404", 
    "lng": "140.0134", 
    "country": "Japan", 
    "iso2": "JP", 
    "admin_name": "Tochigi", 
    "capital": "", 
    "population": "78665", 
    "population_proper": "78665"
  }, 
  {
    "city": "Gyōda", 
    "lat": "36.1389", 
    "lng": "139.4556", 
    "country": "Japan", 
    "iso2": "JP", 
    "admin_name": "Saitama", 
    "capital": "", 
    "population": "78488", 
    "population_proper": "78488"
  }, 
  {
    "city": "Kashiba", 
    "lat": "34.5333", 
    "lng": "135.7000", 
    "country": "Japan", 
    "iso2": "JP", 
    "admin_name": "Nara", 
    "capital": "", 
    "population": "78346", 
    "population_proper": "78346"
  }, 
  {
    "city": "Kizugawa", 
    "lat": "34.7333", 
    "lng": "135.8167", 
    "country": "Japan", 
    "iso2": "JP", 
    "admin_name": "Kyōto", 
    "capital": "", 
    "population": "78035", 
    "population_proper": "78035"
  }, 
  {
    "city": "Fukuchiyama", 
    "lat": "35.3000", 
    "lng": "135.1333", 
    "country": "Japan", 
    "iso2": "JP", 
    "admin_name": "Kyōto", 
    "capital": "", 
    "population": "77150", 
    "population_proper": "77150"
  }, 
  {
    "city": "Nikkō", 
    "lat": "36.7198", 
    "lng": "139.6982", 
    "country": "Japan", 
    "iso2": "JP", 
    "admin_name": "Tochigi", 
    "capital": "", 
    "population": "77027", 
    "population_proper": "77027"
  }, 
  {
    "city": "Toyooka", 
    "lat": "35.5500", 
    "lng": "134.8167", 
    "country": "Japan", 
    "iso2": "JP", 
    "admin_name": "Hyōgo", 
    "capital": "", 
    "population": "77005", 
    "population_proper": "77005"
  }, 
  {
    "city": "Honjō", 
    "lat": "36.2436", 
    "lng": "139.1904", 
    "country": "Japan", 
    "iso2": "JP", 
    "admin_name": "Saitama", 
    "capital": "", 
    "population": "76757", 
    "population_proper": "76757"
  }, 
  {
    "city": "Aira", 
    "lat": "31.7283", 
    "lng": "130.6278", 
    "country": "Japan", 
    "iso2": "JP", 
    "admin_name": "Kagoshima", 
    "capital": "", 
    "population": "76610", 
    "population_proper": "76610"
  }, 
  {
    "city": "Tsubame", 
    "lat": "37.6731", 
    "lng": "138.8822", 
    "country": "Japan", 
    "iso2": "JP", 
    "admin_name": "Niigata", 
    "capital": "", 
    "population": "76590", 
    "population_proper": "76590"
  }, 
  {
    "city": "Toyomamachi-teraike", 
    "lat": "38.6918", 
    "lng": "141.1877", 
    "country": "Japan", 
    "iso2": "JP", 
    "admin_name": "Miyagi", 
    "capital": "", 
    "population": "76164", 
    "population_proper": "76164"
  }, 
  {
    "city": "Daisen", 
    "lat": "39.4531", 
    "lng": "140.4754", 
    "country": "Japan", 
    "iso2": "JP", 
    "admin_name": "Akita", 
    "capital": "", 
    "population": "76164", 
    "population_proper": "76164"
  }, 
  {
    "city": "Ryūgasaki", 
    "lat": "35.9116", 
    "lng": "140.1823", 
    "country": "Japan", 
    "iso2": "JP", 
    "admin_name": "Ibaraki", 
    "capital": "", 
    "population": "76055", 
    "population_proper": "76055"
  }, 
  {
    "city": "Katano", 
    "lat": "34.7833", 
    "lng": "135.6833", 
    "country": "Japan", 
    "iso2": "JP", 
    "admin_name": "Ōsaka", 
    "capital": "", 
    "population": "76002", 
    "population_proper": "76002"
  }, 
  {
    "city": "Nabari", 
    "lat": "34.6276", 
    "lng": "136.1084", 
    "country": "Japan", 
    "iso2": "JP", 
    "admin_name": "Mie", 
    "capital": "", 
    "population": "75942", 
    "population_proper": "75942"
  }, 
  {
    "city": "Nakatsugawa", 
    "lat": "35.4876", 
    "lng": "137.5006", 
    "country": "Japan", 
    "iso2": "JP", 
    "admin_name": "Gifu", 
    "capital": "", 
    "population": "75500", 
    "population_proper": "75500"
  }, 
  {
    "city": "Kiyose", 
    "lat": "35.7857", 
    "lng": "139.5265", 
    "country": "Japan", 
    "iso2": "JP", 
    "admin_name": "Saitama", 
    "capital": "", 
    "population": "75389", 
    "population_proper": "75389"
  }, 
  {
    "city": "Kai", 
    "lat": "35.6608", 
    "lng": "138.5158", 
    "country": "Japan", 
    "iso2": "JP", 
    "admin_name": "Yamanashi", 
    "capital": "", 
    "population": "75337", 
    "population_proper": "75337"
  }, 
  {
    "city": "Shinkai", 
    "lat": "35.8367", 
    "lng": "139.5803", 
    "country": "Japan", 
    "iso2": "JP", 
    "admin_name": "Saitama", 
    "capital": "", 
    "population": "75247", 
    "population_proper": "75247"
  }, 
  {
    "city": "Kunitachi", 
    "lat": "35.6839", 
    "lng": "139.4414", 
    "country": "Japan", 
    "iso2": "JP", 
    "admin_name": "Tōkyō", 
    "capital": "", 
    "population": "75133", 
    "population_proper": "75133"
  }, 
  {
    "city": "Sasagawa", 
    "lat": "37.2865", 
    "lng": "140.3727", 
    "country": "Japan", 
    "iso2": "JP", 
    "admin_name": "Fukushima", 
    "capital": "", 
    "population": "75128", 
    "population_proper": "74778"
  }, 
  {
    "city": "Warabi", 
    "lat": "35.8256", 
    "lng": "139.6797", 
    "country": "Japan", 
    "iso2": "JP", 
    "admin_name": "Saitama", 
    "capital": "", 
    "population": "74996", 
    "population_proper": "74996"
  }, 
  {
    "city": "Amakusa", 
    "lat": "32.4667", 
    "lng": "130.2000", 
    "country": "Japan", 
    "iso2": "JP", 
    "admin_name": "Kumamoto", 
    "capital": "", 
    "population": "74861", 
    "population_proper": "74861"
  }, 
  {
    "city": "Tosu", 
    "lat": "33.3833", 
    "lng": "130.5000", 
    "country": "Japan", 
    "iso2": "JP", 
    "admin_name": "Saga", 
    "capital": "", 
    "population": "74673", 
    "population_proper": "74673"
  }, 
  {
    "city": "Kandori", 
    "lat": "35.6833", 
    "lng": "140.0333", 
    "country": "Japan", 
    "iso2": "JP", 
    "admin_name": "Chiba", 
    "capital": "", 
    "population": "74469", 
    "population_proper": "74469"
  }, 
  {
    "city": "Jōyō", 
    "lat": "34.8531", 
    "lng": "135.7800", 
    "country": "Japan", 
    "iso2": "JP", 
    "admin_name": "Kyōto", 
    "capital": "", 
    "population": "74356", 
    "population_proper": "74356"
  }, 
  {
    "city": "Miki", 
    "lat": "34.7936", 
    "lng": "134.9931", 
    "country": "Japan", 
    "iso2": "JP", 
    "admin_name": "Hyōgo", 
    "capital": "", 
    "population": "74255", 
    "population_proper": "74255"
  }, 
  {
    "city": "Izumiōtsu", 
    "lat": "34.5000", 
    "lng": "135.4000", 
    "country": "Japan", 
    "iso2": "JP", 
    "admin_name": "Ōsaka", 
    "capital": "", 
    "population": "74175", 
    "population_proper": "74175"
  }, 
  {
    "city": "Okegawa", 
    "lat": "36.0057", 
    "lng": "139.5427", 
    "country": "Japan", 
    "iso2": "JP", 
    "admin_name": "Saitama", 
    "capital": "", 
    "population": "74115", 
    "population_proper": "74115"
  }, 
  {
    "city": "Tatebayashi", 
    "lat": "36.2448", 
    "lng": "139.5421", 
    "country": "Japan", 
    "iso2": "JP", 
    "admin_name": "Gunma", 
    "capital": "", 
    "population": "73991", 
    "population_proper": "73991"
  }, 
  {
    "city": "Kyōtanabe", 
    "lat": "34.8167", 
    "lng": "135.7667", 
    "country": "Japan", 
    "iso2": "JP", 
    "admin_name": "Kyōto", 
    "capital": "", 
    "population": "73985", 
    "population_proper": "73985"
  }, 
  {
    "city": "Tatsunochō-tominaga", 
    "lat": "34.8508", 
    "lng": "134.5453", 
    "country": "Japan", 
    "iso2": "JP", 
    "admin_name": "Hyōgo", 
    "capital": "", 
    "population": "73952", 
    "population_proper": "73952"
  }, 
  {
    "city": "Yurihonjō", 
    "lat": "39.3859", 
    "lng": "140.0488", 
    "country": "Japan", 
    "iso2": "JP", 
    "admin_name": "Akita", 
    "capital": "", 
    "population": "73840", 
    "population_proper": "73840"
  }, 
  {
    "city": "Kasama", 
    "lat": "36.3452", 
    "lng": "140.3043", 
    "country": "Japan", 
    "iso2": "JP", 
    "admin_name": "Ibaraki", 
    "capital": "", 
    "population": "73521", 
    "population_proper": "73521"
  }, 
  {
    "city": "Shibukawa", 
    "lat": "36.3894", 
    "lng": "139.0633", 
    "country": "Japan", 
    "iso2": "JP", 
    "admin_name": "Gunma", 
    "capital": "", 
    "population": "73064", 
    "population_proper": "73064"
  }, 
  {
    "city": "Inuyama", 
    "lat": "35.3786", 
    "lng": "136.9445", 
    "country": "Japan", 
    "iso2": "JP", 
    "admin_name": "Gifu", 
    "capital": "", 
    "population": "72926", 
    "population_proper": "72926"
  }, 
  {
    "city": "Ōtawara", 
    "lat": "36.8711", 
    "lng": "140.0156", 
    "country": "Japan", 
    "iso2": "JP", 
    "admin_name": "Tochigi", 
    "capital": "", 
    "population": "72923", 
    "population_proper": "72923"
  }, 
  {
    "city": "Hekinan", 
    "lat": "34.8847", 
    "lng": "136.9934", 
    "country": "Japan", 
    "iso2": "JP", 
    "admin_name": "Aichi", 
    "capital": "", 
    "population": "72480", 
    "population_proper": "72480"
  }, 
  {
    "city": "Dazaifu", 
    "lat": "33.5167", 
    "lng": "130.5167", 
    "country": "Japan", 
    "iso2": "JP", 
    "admin_name": "Fukuoka", 
    "capital": "", 
    "population": "72430", 
    "population_proper": "72430"
  }, 
  {
    "city": "Yoshikawa", 
    "lat": "35.8939", 
    "lng": "139.8414", 
    "country": "Japan", 
    "iso2": "JP", 
    "admin_name": "Saitama", 
    "capital": "", 
    "population": "72139", 
    "population_proper": "72139"
  }, 
  {
    "city": "Chiryū", 
    "lat": "35.0014", 
    "lng": "137.0506", 
    "country": "Japan", 
    "iso2": "JP", 
    "admin_name": "Aichi", 
    "capital": "", 
    "population": "71907", 
    "population_proper": "71907"
  }, 
  {
    "city": "Ishioka", 
    "lat": "36.1908", 
    "lng": "140.2872", 
    "country": "Japan", 
    "iso2": "JP", 
    "admin_name": "Ibaraki", 
    "capital": "", 
    "population": "71851", 
    "population_proper": "71851"
  }, 
  {
    "city": "Katori", 
    "lat": "35.8977", 
    "lng": "140.4992", 
    "country": "Japan", 
    "iso2": "JP", 
    "admin_name": "Chiba", 
    "capital": "", 
    "population": "71391", 
    "population_proper": "71391"
  }, 
  {
    "city": "Musashimurayama", 
    "lat": "35.7548", 
    "lng": "139.3874", 
    "country": "Japan", 
    "iso2": "JP", 
    "admin_name": "Tōkyō", 
    "capital": "", 
    "population": "71183", 
    "population_proper": "71183"
  }, 
  {
    "city": "Yukuhashi", 
    "lat": "33.7333", 
    "lng": "130.9833", 
    "country": "Japan", 
    "iso2": "JP", 
    "admin_name": "Fukuoka", 
    "capital": "", 
    "population": "70922", 
    "population_proper": "70922"
  }, 
  {
    "city": "Yawata-shimizui", 
    "lat": "34.8667", 
    "lng": "135.7000", 
    "country": "Japan", 
    "iso2": "JP", 
    "admin_name": "Kyōto", 
    "capital": "", 
    "population": "70373", 
    "population_proper": "70373"
  }, 
  {
    "city": "Eniwa", 
    "lat": "42.8826", 
    "lng": "141.5778", 
    "country": "Japan", 
    "iso2": "JP", 
    "admin_name": "Hokkaidō", 
    "capital": "", 
    "population": "70102", 
    "population_proper": "70102"
  }, 
  {
    "city": "Tsurugashima", 
    "lat": "35.9345", 
    "lng": "139.3931", 
    "country": "Japan", 
    "iso2": "JP", 
    "admin_name": "Saitama", 
    "capital": "", 
    "population": "70067", 
    "population_proper": "70067"
  }, 
  {
    "city": "Kiyosu", 
    "lat": "35.1998", 
    "lng": "136.8529", 
    "country": "Japan", 
    "iso2": "JP", 
    "admin_name": "Aichi", 
    "capital": "", 
    "population": "69809", 
    "population_proper": "69809"
  }, 
  {
    "city": "Minami-Alps", 
    "lat": "35.6083", 
    "lng": "138.4650", 
    "country": "Japan", 
    "iso2": "JP", 
    "admin_name": "Yamanashi", 
    "capital": "", 
    "population": "69642", 
    "population_proper": "69642"
  }, 
  {
    "city": "Uwajima", 
    "lat": "33.2167", 
    "lng": "132.5667", 
    "country": "Japan", 
    "iso2": "JP", 
    "admin_name": "Ehime", 
    "capital": "", 
    "population": "69639", 
    "population_proper": "69639"
  }, 
  {
    "city": "Rittō", 
    "lat": "35.0167", 
    "lng": "136.0000", 
    "country": "Japan", 
    "iso2": "JP", 
    "admin_name": "Shiga", 
    "capital": "", 
    "population": "69598", 
    "population_proper": "69598"
  }, 
  {
    "city": "Toyoake", 
    "lat": "35.0509", 
    "lng": "137.0128", 
    "country": "Japan", 
    "iso2": "JP", 
    "admin_name": "Aichi", 
    "capital": "", 
    "population": "69389", 
    "population_proper": "69389"
  }, 
  {
    "city": "Anan", 
    "lat": "33.9167", 
    "lng": "134.6667", 
    "country": "Japan", 
    "iso2": "JP", 
    "admin_name": "Tokushima", 
    "capital": "", 
    "population": "69259", 
    "population_proper": "69259"
  }, 
  {
    "city": "Moriya", 
    "lat": "35.9514", 
    "lng": "139.9754", 
    "country": "Japan", 
    "iso2": "JP", 
    "admin_name": "Ibaraki", 
    "capital": "", 
    "population": "68992", 
    "population_proper": "68992"
  }, 
  {
    "city": "Tanabe", 
    "lat": "33.7333", 
    "lng": "135.3833", 
    "country": "Japan", 
    "iso2": "JP", 
    "admin_name": "Wakayama", 
    "capital": "", 
    "population": "68986", 
    "population_proper": "68986"
  }, 
  {
    "city": "Sabae", 
    "lat": "35.9565", 
    "lng": "136.1843", 
    "country": "Japan", 
    "iso2": "JP", 
    "admin_name": "Fukui", 
    "capital": "", 
    "population": "68666", 
    "population_proper": "68666"
  }, 
  {
    "city": "Ōdate", 
    "lat": "40.2714", 
    "lng": "140.5642", 
    "country": "Japan", 
    "iso2": "JP", 
    "admin_name": "Akita", 
    "capital": "", 
    "population": "68593", 
    "population_proper": "68593"
  }, 
  {
    "city": "Sōja", 
    "lat": "34.6728", 
    "lng": "133.7464", 
    "country": "Japan", 
    "iso2": "JP", 
    "admin_name": "Okayama", 
    "capital": "", 
    "population": "68551", 
    "population_proper": "68551"
  }, 
  {
    "city": "Kashiwara", 
    "lat": "34.5833", 
    "lng": "135.6333", 
    "country": "Japan", 
    "iso2": "JP", 
    "admin_name": "Ōsaka", 
    "capital": "", 
    "population": "67757", 
    "population_proper": "67757"
  }, 
  {
    "city": "Fuefuki", 
    "lat": "35.6473", 
    "lng": "138.6397", 
    "country": "Japan", 
    "iso2": "JP", 
    "admin_name": "Yamanashi", 
    "capital": "", 
    "population": "67396", 
    "population_proper": "67396"
  }, 
  {
    "city": "Chiyoda-ku", 
    "lat": "35.6940", 
    "lng": "139.7536", 
    "country": "Japan", 
    "iso2": "JP", 
    "admin_name": "Tōkyō", 
    "capital": "", 
    "population": "67036", 
    "population_proper": "66680"
  }, 
  {
    "city": "Kashima", 
    "lat": "35.9656", 
    "lng": "140.6448", 
    "country": "Japan", 
    "iso2": "JP", 
    "admin_name": "Ibaraki", 
    "capital": "", 
    "population": "67001", 
    "population_proper": "67001"
  }, 
  {
    "city": "Saiki", 
    "lat": "32.9667", 
    "lng": "131.9000", 
    "country": "Japan", 
    "iso2": "JP", 
    "admin_name": "Ōita", 
    "capital": "", 
    "population": "66497", 
    "population_proper": "66497"
  }, 
  {
    "city": "Yachimata", 
    "lat": "35.6667", 
    "lng": "140.3167", 
    "country": "Japan", 
    "iso2": "JP", 
    "admin_name": "Chiba", 
    "capital": "", 
    "population": "66430", 
    "population_proper": "66430"
  }, 
  {
    "city": "Hashima", 
    "lat": "35.3199", 
    "lng": "136.7033", 
    "country": "Japan", 
    "iso2": "JP", 
    "admin_name": "Gifu", 
    "capital": "", 
    "population": "66312", 
    "population_proper": "66312"
  }, 
  {
    "city": "Shiojiri", 
    "lat": "36.1150", 
    "lng": "137.9534", 
    "country": "Japan", 
    "iso2": "JP", 
    "admin_name": "Nagano", 
    "capital": "", 
    "population": "66181", 
    "population_proper": "66181"
  }, 
  {
    "city": "Fukutsu", 
    "lat": "33.7667", 
    "lng": "130.4833", 
    "country": "Japan", 
    "iso2": "JP", 
    "admin_name": "Fukuoka", 
    "capital": "", 
    "population": "65770", 
    "population_proper": "65770"
  }, 
  {
    "city": "Ina", 
    "lat": "35.8275", 
    "lng": "137.9540", 
    "country": "Japan", 
    "iso2": "JP", 
    "admin_name": "Nagano", 
    "capital": "", 
    "population": "65670", 
    "population_proper": "65670"
  },